[
  {
    "SrNo.": 3,
    "Name": "Cumbhum Dam",
    "Latitude": 15.5772,
    "Longitude": 79.0808,
    "Address": "Gundlakama River, Giddalur, Andhra Pradesh",
    "State": "Andhra Pradesh",
    "RiverBasin": "Pennar",
    "HaLF": 15.38,
    "DamLength": 295.65,
    "GrossStorageCapacity": 105350000,
    "ReservoirArea": 23950000,
    "EffectiveStorageCapacity": 14241000,
    "ReadMore": require("../assets/DamPDF/Dam.pdf-0.pdf")
  },
  {
    "SrNo.": 4,
    "Name": "Mopad Reservoir Dam",
    "Latitude": 15.1069,
    "Longitude": 79.4808,
    "Address": "Manneru River, Kanigiri, Andhra Pradesh",
    "State": "Andhra Pradesh",
    "RiverBasin": "Pennar",
    "HaLF": 28,
    "DamLength": 2630,
    "GrossStorageCapacity": 61000000,
    "ReservoirArea": 13073000,
    "EffectiveStorageCapacity": 59216000,
    "ReadMore": require("../assets/DamPDF/Dam.pdf-1.pdf")
  },
  {
    "SrNo.": 5,
    "Name": "Owk Reservoir Complex (Palair, Gollaleru,Timmaraju) Dam",
    "Latitude": 15.1842,
    "Longitude": 78.0969,
    "Address": "Paleru River, Banaganpalli, Andhra Pradesh",
    "State": "Andhra Pradesh",
    "RiverBasin": "Pennar",
    "HaLF": 10.15,
    "DamLength": 622,
    "GrossStorageCapacity": 3514286,
    "ReservoirArea": 808270000,
    "EffectiveStorageCapacity": 2460000,
    "ReadMore": require("../assets/DamPDF/Dam.pdf-2.pdf")
  },
  {
    "SrNo.": 7,
    "Name": "Prakasam Barrage Dam",
    "Latitude": 16.5106,
    "Longitude": 80.6044,
    "Address": "Krishna River, Vijayawada, Andhra Pradesh",
    "State": "Andhra Pradesh",
    "RiverBasin": "Krishna",
    "HaLF": 22.25,
    "DamLength": 1233,
    "GrossStorageCapacity": 86961036,
    "ReservoirArea": 30000000,
    "EffectiveStorageCapacity": 86961036,
    "ReadMore": require("../assets/DamPDF/Dam.pdf-3.pdf")
  },
  {
    "SrNo.": 8,
    "Name": "Nakkalagandi Dam",
    "Latitude": 15.0578,
    "Longitude": 79.3747,
    "Address": "Uppuvagu River, Udayagiri, Andhra Pradesh",
    "State": "Andhra Pradesh",
    "RiverBasin": "Pennar",
    "HaLF": 15,
    "DamLength": 354,
    "GrossStorageCapacity": 4729000,
    "ReservoirArea": 659658,
    "EffectiveStorageCapacity": null,
    "ReadMore": require("../assets/DamPDF/Dam.pdf-4.pdf")
  },
  {
    "SrNo.": 9,
    "Name": "Upper Pennar Dam",
    "Latitude": 14.3511,
    "Longitude": 77.3522,
    "Address": "Pennar River, Dharmavaram, Andhra Pradesh",
    "State": "Andhra Pradesh",
    "RiverBasin": "Pennar",
    "HaLF": 16.74,
    "DamLength": 3505,
    "GrossStorageCapacity": 51282000,
    "ReservoirArea": 7917000,
    "EffectiveStorageCapacity": 44570716,
    "ReadMore": require("../assets/DamPDF/Dam.pdf-5.pdf")
  },
  {
    "SrNo.": 10,
    "Name": "Lower Sagileru Project Dam",
    "Latitude": 14.9536,
    "Longitude": 78.9483,
    "Address": "Sagileru River, Badvel, Andhra Pradesh",
    "State": "Andhra Pradesh",
    "RiverBasin": "Pennar",
    "HaLF": 22.91,
    "DamLength": 1905,
    "GrossStorageCapacity": 7300000,
    "ReservoirArea": 2850,
    "EffectiveStorageCapacity": null,
    "ReadMore": require("../assets/DamPDF/Dam.pdf-6.pdf")
  },
  {
    "SrNo.": 11,
    "Name": "Rallapadu Project Dam",
    "Latitude": 15.0539,
    "Longitude": 79.7183,
    "Address": "Manneru River, Rallapadu, Andhra Pradesh",
    "State": "Andhra Pradesh",
    "RiverBasin": "Pennar",
    "HaLF": 13.85,
    "DamLength": 2951,
    "GrossStorageCapacity": 31318000,
    "ReservoirArea": 7067000,
    "EffectiveStorageCapacity": 30830000,
    "ReadMore": require("../assets/DamPDF/Dam.pdf-7.pdf")
  },
  {
    "SrNo.": 12,
    "Name": "Kalangi Reservoir Dam",
    "Latitude": 13.6078,
    "Longitude": 79.795,
    "Address": "Kalangi River, Srikalahasti, Andhra Pradesh",
    "State": "Andhra Pradesh",
    "RiverBasin": "East Coast",
    "HaLF": 18,
    "DamLength": 3977,
    "GrossStorageCapacity": 6971000,
    "ReservoirArea": 2649000,
    "EffectiveStorageCapacity": 6830000,
    "ReadMore": require("../assets/DamPDF/Dam.pdf-8.pdf")
  },
  {
    "SrNo.": 13,
    "Name": "Pincha Project Dam",
    "Latitude": 13.9089,
    "Longitude": 78.9997,
    "Address": "Pincha River, Rayachoti, Andhra Pradesh",
    "State": "Andhra Pradesh",
    "RiverBasin": "Pennar",
    "HaLF": 21,
    "DamLength": 486,
    "GrossStorageCapacity": 9284000,
    "ReservoirArea": 2048000,
    "EffectiveStorageCapacity": 9131000,
    "ReadMore": require("../assets/DamPDF/Dam.pdf-9.pdf")
  },
  {
    "SrNo.": 14,
    "Name": "Siddlagandi Project, Kotakadapalle (V) Dam",
    "Latitude": 13.8317,
    "Longitude": 79.14,
    "Address": "Talakona River, Vayalpad, Andhra Pradesh",
    "State": "Andhra Pradesh",
    "RiverBasin": "Pennar",
    "HaLF": 12,
    "DamLength": 1795,
    "GrossStorageCapacity": 2031000,
    "ReservoirArea": 247000,
    "EffectiveStorageCapacity": 1000000,
    "ReadMore": require("../assets/DamPDF/Dam.pdf-10.pdf")
  },
  {
    "SrNo.": 15,
    "Name": "Bhairavanitippa Dam",
    "Latitude": 14.5389,
    "Longitude": 76.8378,
    "Address": "Pedda Hagari River, Rayadurg, Andhra Pradesh",
    "State": "Andhra Pradesh",
    "RiverBasin": "Krishna",
    "HaLF": 20,
    "DamLength": 2235,
    "GrossStorageCapacity": 59239000,
    "ReservoirArea": 15480000,
    "EffectiveStorageCapacity": 57930000,
    "ReadMore": require("../assets/DamPDF/Dam.pdf-11.pdf")
  },
  {
    "SrNo.": 16,
    "Name": "Buggavagu Dam",
    "Latitude": 16.48,
    "Longitude": 79.5281,
    "Address": "Buggavagu River, Guruzala, Andhra Pradesh",
    "State": "Andhra Pradesh",
    "RiverBasin": "Krishna",
    "HaLF": 31,
    "DamLength": 2576,
    "GrossStorageCapacity": 98060000,
    "ReservoirArea": 12427000,
    "EffectiveStorageCapacity": 49980000,
    "ReadMore": require("../assets/DamPDF/Dam.pdf-12.pdf")
  },
  {
    "SrNo.": 17,
    "Name": "Jalaput Dam (S.H.E.S) Dam",
    "Latitude": 18.4525,
    "Longitude": 82.5475,
    "Address": "Machkund River, Visakhapatnam, Andhra Pradesh",
    "State": "Andhra Pradesh",
    "RiverBasin": "Godavari",
    "HaLF": 60.65,
    "DamLength": 419,
    "GrossStorageCapacity": 970400000,
    "ReservoirArea": 97120000,
    "EffectiveStorageCapacity": 892460000,
    "ReadMore": require("../assets/DamPDF/Dam.pdf-13.pdf")
  },
  {
    "SrNo.": 18,
    "Name": "Arniar Project Dam",
    "Latitude": 13.4228,
    "Longitude": 79.7422,
    "Address": "Araniar River, Satyavedu, Andhra Pradesh",
    "State": "Andhra Pradesh",
    "RiverBasin": "East Coast",
    "HaLF": 15,
    "DamLength": 3600,
    "GrossStorageCapacity": 52471116,
    "ReservoirArea": 14045000,
    "EffectiveStorageCapacity": 49100000,
    "ReadMore": require("../assets/DamPDF/Dam.pdf-14.pdf")
  },
  {
    "SrNo.": 19,
    "Name": "Zurreru Project Dam",
    "Latitude": 15.3272,
    "Longitude": 78.1256,
    "Address": "Zurreru River, Banaganpalli, Andhra Pradesh",
    "State": "Andhra Pradesh",
    "RiverBasin": "Pennar",
    "HaLF": 16,
    "DamLength": 677,
    "GrossStorageCapacity": 7340000,
    "ReservoirArea": 1462000,
    "EffectiveStorageCapacity": 7056000,
    "ReadMore": require("../assets/DamPDF/Dam.pdf-15.pdf")
  },
  {
    "SrNo.": 20,
    "Name": "Guntavada Weir (S.H.E.S) Dam",
    "Latitude": 18.0592,
    "Longitude": 82.0386,
    "Address": "Sileru River, Chintpalle, Andhra Pradesh",
    "State": "Andhra Pradesh",
    "RiverBasin": "Godavari",
    "HaLF": 31,
    "DamLength": 625,
    "GrossStorageCapacity": 122740000,
    "ReservoirArea": 4237316,
    "EffectiveStorageCapacity": 88220000,
    "ReadMore": require("../assets/DamPDF/Dam.pdf-16.pdf")
  },
  {
    "SrNo.": 21,
    "Name": "Thatipudi Dam",
    "Latitude": 18.1719,
    "Longitude": 83.1944,
    "Address": "Gosthani River, Srungavarapukota, Andhra Pradesh",
    "State": "Andhra Pradesh",
    "RiverBasin": "North East Coast",
    "HaLF": 37,
    "DamLength": 585,
    "GrossStorageCapacity": 94164000,
    "ReservoirArea": 9427828,
    "EffectiveStorageCapacity": 89910000,
    "ReadMore": require("../assets/DamPDF/Dam.pdf-17.pdf")
  },
  {
    "SrNo.": 22,
    "Name": "Mid Pennar Stage-I Dam",
    "Latitude": 14.8708,
    "Longitude": 77.4083,
    "Address": "Pennar River, Anantapur, Andhra Pradesh",
    "State": "Andhra Pradesh",
    "RiverBasin": "Pennar",
    "HaLF": 43,
    "DamLength": 1175,
    "GrossStorageCapacity": 146398000,
    "ReservoirArea": 17108000,
    "EffectiveStorageCapacity": 136906000,
    "ReadMore": require("../assets/DamPDF/Dam.pdf-18.pdf")
  },
  {
    "SrNo.": 23,
    "Name": "Chennaraya Swami Gudi Project Dam",
    "Latitude": 13.8617,
    "Longitude": 78.1783,
    "Address": "Papagni River, Kadiri, Andhra Pradesh",
    "State": "Andhra Pradesh",
    "RiverBasin": "Pennar",
    "HaLF": 15,
    "DamLength": 465,
    "GrossStorageCapacity": 4818000,
    "ReservoirArea": 1057000,
    "EffectiveStorageCapacity": 4477000,
    "ReadMore": require("../assets/DamPDF/Dam.pdf-19.pdf")
  },
  {
    "SrNo.": 24,
    "Name": "Subba Reddy Sagar Dam",
    "Latitude": 17.3314,
    "Longitude": 82.2042,
    "Address": "Kuntidevi Vagu River, Gokavaram, Andhra Pradesh",
    "State": "Andhra Pradesh",
    "RiverBasin": "North East Coast",
    "HaLF": 17.5,
    "DamLength": 442,
    "GrossStorageCapacity": 6626000,
    "ReservoirArea": 782860,
    "EffectiveStorageCapacity": 5928640,
    "ReadMore": require("../assets/DamPDF/Dam.pdf-20.pdf")
  },
  {
    "SrNo.": 25,
    "Name": "Pedderu Reservoir Project Dam",
    "Latitude": 13.8839,
    "Longitude": 78.3703,
    "Address": "Pedderu River, Kottala, Andhra Pradesh",
    "State": "Andhra Pradesh",
    "RiverBasin": "Pennar",
    "HaLF": 29.3,
    "DamLength": 590,
    "GrossStorageCapacity": 15850000,
    "ReservoirArea": 200000,
    "EffectiveStorageCapacity": 14980000,
    "ReadMore": require("../assets/DamPDF/Dam.pdf-21.pdf")
  },
  {
    "SrNo.": 26,
    "Name": "Vottigedda Reservoir Dam",
    "Latitude": 18.8486,
    "Longitude": 83.6042,
    "Address": "Nagavalli River, Parvathipuram, Andhra Pradesh",
    "State": "Andhra Pradesh",
    "RiverBasin": "North East Coast",
    "HaLF": 27.5,
    "DamLength": 2152,
    "GrossStorageCapacity": 27130000,
    "ReservoirArea": 4402980,
    "EffectiveStorageCapacity": 25150000,
    "ReadMore": require("../assets/DamPDF/Dam.pdf-22.pdf")
  },
  {
    "SrNo.": 27,
    "Name": "Bahuda Reservoir Project Dam",
    "Latitude": 13.5628,
    "Longitude": 78.6281,
    "Address": "Bahuda River, Valasavalli, Andhra Pradesh",
    "State": "Andhra Pradesh",
    "RiverBasin": "Pennar",
    "HaLF": 20,
    "DamLength": 792,
    "GrossStorageCapacity": 11270000,
    "ReservoirArea": 200000,
    "EffectiveStorageCapacity": 10700000,
    "ReadMore": require("../assets/DamPDF/Dam.pdf-23.pdf")
  },
  {
    "SrNo.": 28,
    "Name": "C.K.Reservoir Dam",
    "Latitude": 15.6614,
    "Longitude": 79.9867,
    "Address": "Gundlakama River, Y.Palem, Andhra Pradesh",
    "State": "Andhra Pradesh",
    "RiverBasin": "Pennar",
    "HaLF": 17,
    "DamLength": 178,
    "GrossStorageCapacity": 4813000,
    "ReservoirArea": 21522930,
    "EffectiveStorageCapacity": 4813000,
    "ReadMore": require("../assets/DamPDF/Dam.pdf-24.pdf")
  },
  {
    "SrNo.": 29,
    "Name": "Varaha Dam",
    "Latitude": 17.8114,
    "Longitude": 82.675,
    "Address": "Varaha River, Chodavaram, Andhra Pradesh",
    "State": "Andhra Pradesh",
    "RiverBasin": "North East Coast",
    "HaLF": 25,
    "DamLength": 1652,
    "GrossStorageCapacity": 13167000,
    "ReservoirArea": 2330000,
    "EffectiveStorageCapacity": 12205000,
    "ReadMore": require("../assets/DamPDF/Dam.pdf-25.pdf")
  },
  {
    "SrNo.": 30,
    "Name": "Kalyani Dam",
    "Latitude": 13.6581,
    "Longitude": 79.2686,
    "Address": "Kalyani River, Chandragiri, Andhra Pradesh",
    "State": "Andhra Pradesh",
    "RiverBasin": "East Coast",
    "HaLF": 36,
    "DamLength": 500,
    "GrossStorageCapacity": 25770000,
    "ReservoirArea": 22550000,
    "EffectiveStorageCapacity": 24830000,
    "ReadMore": require("../assets/DamPDF/Dam.pdf-26.pdf")
  },
  {
    "SrNo.": 31,
    "Name": "Kaleti Vagu Reservoir Dam",
    "Latitude": 14.735,
    "Longitude": 78.4572,
    "Address": "Local Stream River, Vempalli, Andhra Pradesh",
    "State": "Andhra Pradesh",
    "RiverBasin": "Pennar",
    "HaLF": 11.2,
    "DamLength": 1850,
    "GrossStorageCapacity": 6400000,
    "ReservoirArea": 1900000,
    "EffectiveStorageCapacity": 6400000,
    "ReadMore": require("../assets/DamPDF/Dam.pdf-27.pdf")
  },
  {
    "SrNo.": 32,
    "Name": "Mehadrigedda Dam",
    "Latitude": 17.765,
    "Longitude": 83.1908,
    "Address": "Mehadrigedda River, Visakhapatnam, Andhra Pradesh",
    "State": "Andhra Pradesh",
    "RiverBasin": "North East Coast",
    "HaLF": 13.716,
    "DamLength": 1609,
    "GrossStorageCapacity": 33102000,
    "ReservoirArea": 10813000,
    "EffectiveStorageCapacity": 29530000,
    "ReadMore": require("../assets/DamPDF/Dam.pdf-28.pdf")
  },
  {
    "SrNo.": 33,
    "Name": "Thandava Dam",
    "Latitude": 17.6222,
    "Longitude": 82.4606,
    "Address": "Thandava River, Narsipatnam, Andhra Pradesh",
    "State": "Andhra Pradesh",
    "RiverBasin": "North East Coast",
    "HaLF": 32.7,
    "DamLength": 201,
    "GrossStorageCapacity": 140450000,
    "ReservoirArea": 18650000,
    "EffectiveStorageCapacity": 124690000,
    "ReadMore": require("../assets/DamPDF/Dam.pdf-29.pdf")
  },
  {
    "SrNo.": 34,
    "Name": "Peddabommalapuram Reservoir Dam",
    "Latitude": 15.9583,
    "Longitude": 79.1361,
    "Address": "Local Nala River, Dornal, Andhra Pradesh",
    "State": "Andhra Pradesh",
    "RiverBasin": "Pennar",
    "HaLF": 17.3,
    "DamLength": 640,
    "GrossStorageCapacity": 3763000,
    "ReservoirArea": 243876,
    "EffectiveStorageCapacity": 3763000,
    "ReadMore": require("../assets/DamPDF/Dam.pdf-30.pdf")
  },
  {
    "SrNo.": 35,
    "Name": "Pittakayagulla Dam",
    "Latitude": 15.4781,
    "Longitude": 79.1242,
    "Address": "Vemuluri Stream River, Giddalur, Andhra Pradesh",
    "State": "Andhra Pradesh",
    "RiverBasin": "Pennar",
    "HaLF": 12.5,
    "DamLength": null,
    "GrossStorageCapacity": 3306000,
    "ReservoirArea": 921522,
    "EffectiveStorageCapacity": 3003000,
    "ReadMore": require("../assets/DamPDF/Dam.pdf-31.pdf")
  },
  {
    "SrNo.": 36,
    "Name": "Pampa Reservoir Dam",
    "Latitude": 17.2878,
    "Longitude": 82.4072,
    "Address": "Pampa River, Prathipadu, Andhra Pradesh",
    "State": "Andhra Pradesh",
    "RiverBasin": "North East Coast",
    "HaLF": 15,
    "DamLength": 1128,
    "GrossStorageCapacity": 15983000,
    "ReservoirArea": 4721000,
    "EffectiveStorageCapacity": 15787000,
    "ReadMore": require("../assets/DamPDF/Dam.pdf-32.pdf")
  },
  {
    "SrNo.": 37,
    "Name": "Gajuladinne Project Dam",
    "Latitude": 15.6931,
    "Longitude": 77.6189,
    "Address": "Handri River, Pattikonda, Andhra Pradesh",
    "State": "Andhra Pradesh",
    "RiverBasin": "Krishna",
    "HaLF": 19,
    "DamLength": 4400,
    "GrossStorageCapacity": 148660000,
    "ReservoirArea": 31988000,
    "EffectiveStorageCapacity": 121196000,
    "ReadMore": require("../assets/DamPDF/Dam.pdf-33.pdf")
  },
  {
    "SrNo.": 38,
    "Name": "Sadasivakona Dam",
    "Latitude": 13.5931,
    "Longitude": 79.6175,
    "Address": "Sadasivakona River, Srikalahasti, Andhra Pradesh",
    "State": "Andhra Pradesh",
    "RiverBasin": "East Coast",
    "HaLF": 14.03,
    "DamLength": 619,
    "GrossStorageCapacity": 4247500,
    "ReservoirArea": 865731,
    "EffectiveStorageCapacity": null,
    "ReadMore": require("../assets/DamPDF/Dam.pdf-34.pdf")
  },
  {
    "SrNo.": 39,
    "Name": "Pedderu Dam",
    "Latitude": 13.8836,
    "Longitude": 78.3703,
    "Address": "Pedderu River, Madanapalle, Andhra Pradesh",
    "State": "Andhra Pradesh",
    "RiverBasin": "Pennar",
    "HaLF": 35,
    "DamLength": 590,
    "GrossStorageCapacity": 15857000,
    "ReservoirArea": 1999000,
    "EffectiveStorageCapacity": 14974000,
    "ReadMore": require("../assets/DamPDF/Dam.pdf-35.pdf")
  },
  {
    "SrNo.": 40,
    "Name": "Saddikutimadugu Reservoir Dam",
    "Latitude": 13.4403,
    "Longitude": 79.8442,
    "Address": "Manneru River, Thirupathi, Andhra Pradesh",
    "State": "Andhra Pradesh",
    "RiverBasin": "East Coast",
    "HaLF": 10.94,
    "DamLength": 800,
    "GrossStorageCapacity": 1634000,
    "ReservoirArea": 809720,
    "EffectiveStorageCapacity": 1634000,
    "ReadMore": require("../assets/DamPDF/Dam.pdf-36.pdf")
  },
  {
    "SrNo.": 41,
    "Name": "Raiwada Reservoir Dam",
    "Latitude": 18.0067,
    "Longitude": 82.9653,
    "Address": "Sarada River, Chodavaram, Andhra Pradesh",
    "State": "Andhra Pradesh",
    "RiverBasin": "North East Coast",
    "HaLF": 28,
    "DamLength": 5750,
    "GrossStorageCapacity": 101940000,
    "ReservoirArea": 6544077,
    "EffectiveStorageCapacity": 92740000,
    "ReadMore": require("../assets/DamPDF/Dam.pdf-37.pdf")
  },
  {
    "SrNo.": 42,
    "Name": "Konam Reservoir Dam",
    "Latitude": 17.9664,
    "Longitude": 82.8539,
    "Address": "Bodderu River, Chodavaram, Andhra Pradesh",
    "State": "Andhra Pradesh",
    "RiverBasin": "North East Coast",
    "HaLF": 23,
    "DamLength": 339,
    "GrossStorageCapacity": 24070000,
    "ReservoirArea": 3267000,
    "EffectiveStorageCapacity": 22870000,
    "ReadMore": require("../assets/DamPDF/Dam.pdf-38.pdf")
  },
  {
    "SrNo.": 43,
    "Name": "Donkarai (S.H.E.S) Dam",
    "Latitude": 17.9342,
    "Longitude": 81.7961,
    "Address": "Sileru River, Donkarayi, Andhra Pradesh",
    "State": "Andhra Pradesh",
    "RiverBasin": "Godavari",
    "HaLF": 71,
    "DamLength": 1398,
    "GrossStorageCapacity": 470000000,
    "ReservoirArea": 28060000,
    "EffectiveStorageCapacity": 380000000,
    "ReadMore": require("../assets/DamPDF/Dam.pdf-39.pdf")
  },
  {
    "SrNo.": 44,
    "Name": "Mylavaram Reservoir Dam",
    "Latitude": 14.8494,
    "Longitude": 78.3397,
    "Address": "Pennar River, Jammalamadugu, Andhra Pradesh",
    "State": "Andhra Pradesh",
    "RiverBasin": "Pennar",
    "HaLF": 24,
    "DamLength": 2850,
    "GrossStorageCapacity": 283000000,
    "ReservoirArea": 106190000,
    "EffectiveStorageCapacity": 254000000,
    "ReadMore": require("../assets/DamPDF/Dam.pdf-40.pdf")
  },
  {
    "SrNo.": 45,
    "Name": "Srisailam Project (N.S.R.S.P) Dam",
    "Latitude": 16.0861,
    "Longitude": 78.8967,
    "Address": "Krishna River, Nandikotkur, Andhra Pradesh",
    "State": "Andhra Pradesh",
    "RiverBasin": "Krishna",
    "HaLF": 145,
    "DamLength": 512,
    "GrossStorageCapacity": 6116438863,
    "ReservoirArea": 616420000,
    "EffectiveStorageCapacity": 5833270398,
    "ReadMore": require("../assets/DamPDF/Dam.pdf-41.pdf")
  },
  {
    "SrNo.": 46,
    "Name": "Papavinasanam Dam",
    "Latitude": 13.7194,
    "Longitude": 79.3436,
    "Address": "Papavinasanam River, Tirupati, Andhra Pradesh",
    "State": "Andhra Pradesh",
    "RiverBasin": "East Coast",
    "HaLF": 50,
    "DamLength": 274000,
    "GrossStorageCapacity": 2124000,
    "ReservoirArea": 760000,
    "EffectiveStorageCapacity": null,
    "ReadMore": require("../assets/DamPDF/Dam.pdf-42.pdf")
  },
  {
    "SrNo.": 47,
    "Name": "Somasila Reservoir Dam",
    "Latitude": 14.4886,
    "Longitude": 79.3036,
    "Address": "Pennar River, Atmakur, Andhra Pradesh",
    "State": "Andhra Pradesh",
    "RiverBasin": "Pennar",
    "HaLF": 39,
    "DamLength": 352,
    "GrossStorageCapacity": 2208370000,
    "ReservoirArea": 212280000,
    "EffectiveStorageCapacity": 1994100000,
    "ReadMore": require("../assets/DamPDF/Dam.pdf-43.pdf")
  },
  {
    "SrNo.": 48,
    "Name": "Gandipalem Project Dam",
    "Latitude": 14.9903,
    "Longitude": 79.2975,
    "Address": "Pillaperu River, Udayagiri, Andhra Pradesh",
    "State": "Andhra Pradesh",
    "RiverBasin": "Pennar",
    "HaLF": 21,
    "DamLength": 388,
    "GrossStorageCapacity": 53240000,
    "ReservoirArea": 9460000,
    "EffectiveStorageCapacity": 49410000,
    "ReadMore": require("../assets/DamPDF/Dam.pdf-44.pdf")
  },
  {
    "SrNo.": 49,
    "Name": "Jalleru Reservoir Dam",
    "Latitude": 17.29,
    "Longitude": 81.3458,
    "Address": "Jalleru River, Polavaram, Andhra Pradesh",
    "State": "Andhra Pradesh",
    "RiverBasin": "Krishna",
    "HaLF": 31.42,
    "DamLength": 1790,
    "GrossStorageCapacity": 15317000,
    "ReservoirArea": 1641000,
    "EffectiveStorageCapacity": 11339000,
    "ReadMore": require("../assets/DamPDF/Dam.pdf-45.pdf")
  },
  {
    "SrNo.": 50,
    "Name": "Thammileru Dam",
    "Latitude": 17.0125,
    "Longitude": 80.9597,
    "Address": "Thammileru River, Thiruvuru, Andhra Pradesh",
    "State": "Andhra Pradesh",
    "RiverBasin": "Krishna",
    "HaLF": 23.25,
    "DamLength": 6400,
    "GrossStorageCapacity": 84939000,
    "ReservoirArea": 13755000,
    "EffectiveStorageCapacity": 76444000,
    "ReadMore": require("../assets/DamPDF/Dam.pdf-46.pdf")
  },
  {
    "SrNo.": 51,
    "Name": "Vagetikona Reservoir Dam",
    "Latitude": 13.8694,
    "Longitude": 79.3339,
    "Address": "Local Stream River, Kodur, Andhra Pradesh",
    "State": "Andhra Pradesh",
    "RiverBasin": "Pennar",
    "HaLF": 11.3,
    "DamLength": 1306,
    "GrossStorageCapacity": 2030000,
    "ReservoirArea": 640000,
    "EffectiveStorageCapacity": 2030000,
    "ReadMore": require("../assets/DamPDF/Dam.pdf-47.pdf")
  },
  {
    "SrNo.": 52,
    "Name": "Vengalaraya Sagar Dam",
    "Latitude": 18.6228,
    "Longitude": 83.2217,
    "Address": "Svarnamukhi Gomula River, Salur, Andhra Pradesh",
    "State": "Andhra Pradesh",
    "RiverBasin": "North East Coast",
    "HaLF": 21,
    "DamLength": 1765,
    "GrossStorageCapacity": 40570000,
    "ReservoirArea": 7690000,
    "EffectiveStorageCapacity": 39780000,
    "ReadMore": require("../assets/DamPDF/Dam.pdf-48.pdf")
  },
  {
    "SrNo.": 53,
    "Name": "Pedaballi Reservoir Dam",
    "Latitude": 13.9694,
    "Longitude": 78.3847,
    "Address": "Local Stream River, Kadiri, Andhra Pradesh",
    "State": "Andhra Pradesh",
    "RiverBasin": "Pennar",
    "HaLF": 12,
    "DamLength": 149,
    "GrossStorageCapacity": 4932000,
    "ReservoirArea": 2097000,
    "EffectiveStorageCapacity": 3794000,
    "ReadMore": require("../assets/DamPDF/Dam.pdf-49.pdf")
  },
  {
    "SrNo.": 54,
    "Name": "Andra Reservoir Dam",
    "Latitude": 18.3497,
    "Longitude": 83.1964,
    "Address": "Champavathi River, Gajapathinagaram, Andhra Pradesh",
    "State": "Andhra Pradesh",
    "RiverBasin": "North East Coast",
    "HaLF": 22,
    "DamLength": 1890,
    "GrossStorageCapacity": 27750000,
    "ReservoirArea": 4406000,
    "EffectiveStorageCapacity": 26400000,
    "ReadMore": require("../assets/DamPDF/Dam.pdf-50.pdf")
  },
  {
    "SrNo.": 55,
    "Name": "Buggavanka Project Dam",
    "Latitude": 14.4003,
    "Longitude": 78.8358,
    "Address": "Buggavanka River, Cuddapah, Andhra Pradesh",
    "State": "Andhra Pradesh",
    "RiverBasin": "Pennar",
    "HaLF": 26,
    "DamLength": 2060,
    "GrossStorageCapacity": 14320000,
    "ReservoirArea": 1566000,
    "EffectiveStorageCapacity": 12040000,
    "ReadMore": require("../assets/DamPDF/Dam.pdf-51.pdf")
  },
  {
    "SrNo.": 56,
    "Name": "Yogi Vemana (Maddileru) Reservoir Dam",
    "Latitude": 14.3581,
    "Longitude": 78.0522,
    "Address": "Maddileru Tributary To Chitravati River, Kadiri, Andhra Pradesh",
    "State": "Andhra Pradesh",
    "RiverBasin": "Pennar",
    "HaLF": 29.47,
    "DamLength": 570,
    "GrossStorageCapacity": 25490000,
    "ReservoirArea": 4633000,
    "EffectiveStorageCapacity": 21149000,
    "ReadMore": require("../assets/DamPDF/Dam.pdf-52.pdf")
  },
  {
    "SrNo.": 57,
    "Name": "Madduvalasa Reservoir Dam",
    "Latitude": 18.5881,
    "Longitude": 83.6186,
    "Address": "Maddigedda River, Palakonda, Andhra Pradesh",
    "State": "Andhra Pradesh",
    "RiverBasin": "North East Coast",
    "HaLF": 16,
    "DamLength": 2320,
    "GrossStorageCapacity": 95510000,
    "ReservoirArea": 2673000,
    "EffectiveStorageCapacity": 93580000,
    "ReadMore": require("../assets/DamPDF/Dam.pdf-53.pdf")
  },
  {
    "SrNo.": 58,
    "Name": "Yerrakalva Dam",
    "Latitude": 17.1003,
    "Longitude": 81.2561,
    "Address": "Yerrakalva River, Chintala Pudi, Andhra Pradesh",
    "State": "Andhra Pradesh",
    "RiverBasin": "Krishna",
    "HaLF": 19.79,
    "DamLength": 2700,
    "GrossStorageCapacity": 693400000,
    "ReservoirArea": 26067000,
    "EffectiveStorageCapacity": 586700000,
    "ReadMore": require("../assets/DamPDF/Dam.pdf-54.pdf")
  },
  {
    "SrNo.": 59,
    "Name": "Dharakalava Reservoir Dam",
    "Latitude": 17.3392,
    "Longitude": 82.2367,
    "Address": "Hill Stream River, Kakinada, Andhra Pradesh",
    "State": "Andhra Pradesh",
    "RiverBasin": "North East Coast",
    "HaLF": 20.12,
    "DamLength": 250,
    "GrossStorageCapacity": 2463000,
    "ReservoirArea": 433000,
    "EffectiveStorageCapacity": 2143000,
    "ReadMore": require("../assets/DamPDF/Dam.pdf-55.pdf")
  },
  {
    "SrNo.": 60,
    "Name": "Maddigedda Reservoir Dam",
    "Latitude": 17.4867,
    "Longitude": 82.0119,
    "Address": "Janjhavathi River, Ellavaram, Andhra Pradesh",
    "State": "Andhra Pradesh",
    "RiverBasin": "Godavari",
    "HaLF": 27,
    "DamLength": 862,
    "GrossStorageCapacity": 13733000,
    "ReservoirArea": 1821000,
    "EffectiveStorageCapacity": 12289000,
    "ReadMore": require("../assets/DamPDF/Dam.pdf-56.pdf")
  },
  {
    "SrNo.": 61,
    "Name": "Kovvadda Kalva Dam",
    "Latitude": 17.1978,
    "Longitude": 81.5075,
    "Address": "Kouvodakalva River, Polavaram, Andhra Pradesh",
    "State": "Andhra Pradesh",
    "RiverBasin": "Godavari",
    "HaLF": 22.04,
    "DamLength": 1599,
    "GrossStorageCapacity": 12360000,
    "ReservoirArea": 12346000,
    "EffectiveStorageCapacity": 11581000,
    "ReadMore": require("../assets/DamPDF/Dam.pdf-57.pdf")
  },
  {
    "SrNo.": 62,
    "Name": "Veligallu Dam",
    "Latitude": 14.0311,
    "Longitude": 78.4764,
    "Address": "Papagni River, Rayachoti, Andhra Pradesh",
    "State": "Andhra Pradesh",
    "RiverBasin": "Pennar",
    "HaLF": 45,
    "DamLength": 810,
    "GrossStorageCapacity": 13147000,
    "ReservoirArea": 10886000,
    "EffectiveStorageCapacity": 104120,
    "ReadMore": require("../assets/DamPDF/Dam.pdf-58.pdf")
  },
  {
    "SrNo.": 63,
    "Name": "Swarnamukhi Barrage Dam",
    "Latitude": 14.0069,
    "Longitude": 80.0697,
    "Address": "Swarnamukhi River, Nellore, Andhra Pradesh",
    "State": "Andhra Pradesh",
    "RiverBasin": "East Coast",
    "HaLF": 10.6,
    "DamLength": 389.5,
    "GrossStorageCapacity": 991780,
    "ReservoirArea": 487555,
    "EffectiveStorageCapacity": null,
    "ReadMore": require("../assets/DamPDF/Dam.pdf-59.pdf")
  },
  {
    "SrNo.": 64,
    "Name": "N.T.R. T.G.P-Subsidiary Reservoir No 1 Dam",
    "Latitude": 14.825,
    "Longitude": 78.75,
    "Address": "Kunderu River, Cuddapah, Andhra Pradesh",
    "State": "Andhra Pradesh",
    "RiverBasin": "Pennar",
    "HaLF": 28,
    "DamLength": 1820,
    "GrossStorageCapacity": 60416000,
    "ReservoirArea": 5180000,
    "EffectiveStorageCapacity": null,
    "ReadMore": require("../assets/DamPDF/Dam.pdf-60.pdf")
  },
  {
    "SrNo.": 65,
    "Name": "Chennapatnam Cheruvu Dam",
    "Latitude": 13.4517,
    "Longitude": 78.8217,
    "Address": "Pennar River, Somala, Andhra Pradesh",
    "State": "Andhra Pradesh",
    "RiverBasin": "Pennar",
    "HaLF": 10,
    "DamLength": 950,
    "GrossStorageCapacity": 1676340,
    "ReservoirArea": 1156900,
    "EffectiveStorageCapacity": 1676000,
    "ReadMore": require("../assets/DamPDF/Dam.pdf-61.pdf")
  },
  {
    "SrNo.": 66,
    "Name": "Chikkavadiyar, Anantapur Dam",
    "Latitude": 14.6708,
    "Longitude": 77.6703,
    "Address": "Ghatprabha River, Bukkarayasamudram, Andhra Pradesh",
    "State": "Andhra Pradesh",
    "RiverBasin": "Pennar",
    "HaLF": 10.54,
    "DamLength": 4476,
    "GrossStorageCapacity": 15524240,
    "ReservoirArea": 2261730,
    "EffectiveStorageCapacity": 11942000,
    "ReadMore": require("../assets/DamPDF/Dam.pdf-62.pdf")
  },
  {
    "SrNo.": 67,
    "Name": "Chintakuntavagu Dam",
    "Latitude": 14.6964,
    "Longitude": 78.3203,
    "Address": "Local Stream River, Jammalamadugu, Andhra Pradesh",
    "State": "Andhra Pradesh",
    "RiverBasin": "Pennar",
    "HaLF": 13,
    "DamLength": 285,
    "GrossStorageCapacity": 1982000,
    "ReservoirArea": 60000000,
    "EffectiveStorageCapacity": null,
    "ReadMore": require("../assets/DamPDF/Dam.pdf-63.pdf")
  },
  {
    "SrNo.": 68,
    "Name": "Gandicheruvu, Verabhadrapuram Dam",
    "Latitude": 16.9991,
    "Longitude": 81.4863,
    "Address": "Ghataprabha River, Marakapur, Andhra Pradesh",
    "State": "Andhra Pradesh",
    "RiverBasin": "Krishna",
    "HaLF": 26.69,
    "DamLength": 240,
    "GrossStorageCapacity": 3052700,
    "ReservoirArea": 198563,
    "EffectiveStorageCapacity": null,
    "ReadMore": require("../assets/DamPDF/Dam.pdf-64.pdf")
  },
  {
    "SrNo.": 69,
    "Name": "Gowricheru, Mogili Dam",
    "Latitude": 13.23,
    "Longitude": 78.8194,
    "Address": "Ghataprabha River, Chittoor, Andhra Pradesh",
    "State": "Andhra Pradesh",
    "RiverBasin": "East Coast",
    "HaLF": 10,
    "DamLength": 650,
    "GrossStorageCapacity": 872000,
    "ReservoirArea": 34055,
    "EffectiveStorageCapacity": 730390,
    "ReadMore": require("../assets/DamPDF/Dam.pdf-65.pdf")
  },
  {
    "SrNo.": 70,
    "Name": "Gundlamotu Reservoir Dam",
    "Latitude": 15.3553,
    "Longitude": 79.8186,
    "Address": "Ghataprabha River, Giddalur, Andhra Pradesh",
    "State": "Andhra Pradesh",
    "RiverBasin": "Pennar",
    "HaLF": 16,
    "DamLength": 605,
    "GrossStorageCapacity": 9040000,
    "ReservoirArea": 0,
    "EffectiveStorageCapacity": null,
    "ReadMore": require("../assets/DamPDF/Dam.pdf-66.pdf")
  },
  {
    "SrNo.": 72,
    "Name": "Koduru Reservoir Dam",
    "Latitude": 13.8647,
    "Longitude": 77.7261,
    "Address": "Khushavathi River, Guntakal, Andhra Pradesh",
    "State": "Andhra Pradesh",
    "RiverBasin": "Pennar",
    "HaLF": 10,
    "DamLength": 796,
    "GrossStorageCapacity": 1901000,
    "ReservoirArea": 1170000,
    "EffectiveStorageCapacity": 1464000,
    "ReadMore": require("../assets/DamPDF/Dam.pdf-67.pdf")
  },
  {
    "SrNo.": 73,
    "Name": "Kushavathi Reservoir Dam",
    "Latitude": 13.9778,
    "Longitude": 78.5278,
    "Address": "Khushavathi River, Rayachoti, Andhra Pradesh",
    "State": "Andhra Pradesh",
    "RiverBasin": "Pennar",
    "HaLF": 17.47,
    "DamLength": 1030,
    "GrossStorageCapacity": 2900000,
    "ReservoirArea": 77280000,
    "EffectiveStorageCapacity": 2500000,
    "ReadMore": require("../assets/DamPDF/Dam.pdf-68.pdf")
  },
  {
    "SrNo.": 74,
    "Name": "Madakasira Dam",
    "Latitude": 13.9275,
    "Longitude": 77.2464,
    "Address": "Ghataprabha River, Madakasira, Andhra Pradesh",
    "State": "Andhra Pradesh",
    "RiverBasin": "Pennar",
    "HaLF": 12,
    "DamLength": 686,
    "GrossStorageCapacity": 3972000,
    "ReservoirArea": 933000,
    "EffectiveStorageCapacity": 3056000,
    "ReadMore": require("../assets/DamPDF/Dam.pdf-69.pdf")
  },
  {
    "SrNo.": 75,
    "Name": "Muthyalacheruvu Dam",
    "Latitude": 14.0994,
    "Longitude": 78.0831,
    "Address": "Ghatprabha River, Dharmavaram, Andhra Pradesh",
    "State": "Andhra Pradesh",
    "RiverBasin": "Pennar",
    "HaLF": 11,
    "DamLength": 838,
    "GrossStorageCapacity": 2847000,
    "ReservoirArea": 1172000,
    "EffectiveStorageCapacity": 2190000,
    "ReadMore": require("../assets/DamPDF/Dam.pdf-70.pdf")
  },
  {
    "SrNo.": 76,
    "Name": "Panthulu Cheruvu Dam",
    "Latitude": 14.0397,
    "Longitude": 78.1461,
    "Address": "Madduleru River, Kadiri, Andhra Pradesh",
    "State": "Andhra Pradesh",
    "RiverBasin": "Pennar",
    "HaLF": 12,
    "DamLength": 923,
    "GrossStorageCapacity": 6790000,
    "ReservoirArea": 2300000,
    "EffectiveStorageCapacity": 5230000,
    "ReadMore": require("../assets/DamPDF/Dam.pdf-71.pdf")
  },
  {
    "SrNo.": 77,
    "Name": "Pattikondavanka, Guttava Dam",
    "Latitude": 13.4767,
    "Longitude": 79.8397,
    "Address": "Ghataprabha River, Chittoor, Andhra Pradesh",
    "State": "Andhra Pradesh",
    "RiverBasin": "East Coast",
    "HaLF": 12.48,
    "DamLength": 580,
    "GrossStorageCapacity": 547000,
    "ReservoirArea": 318682,
    "EffectiveStorageCapacity": 346000,
    "ReadMore": require("../assets/DamPDF/Dam.pdf-72.pdf")
  },
  {
    "SrNo.": 78,
    "Name": "Paya Cheruvu Dam",
    "Latitude": 13.4417,
    "Longitude": 78.4497,
    "Address": "Ghataprabha River, Punganuru, Andhra Pradesh",
    "State": "Andhra Pradesh",
    "RiverBasin": "Pennar",
    "HaLF": 14,
    "DamLength": 200,
    "GrossStorageCapacity": 1557410,
    "ReservoirArea": 221500,
    "EffectiveStorageCapacity": 1557000,
    "ReadMore": require("../assets/DamPDF/Dam.pdf-73.pdf")
  },
  {
    "SrNo.": 79,
    "Name": "Peddabadava, Tulasikrishan Dam",
    "Latitude": 13.4689,
    "Longitude": 79.7431,
    "Address": "Peddabadava River, Srikalahasti, Andhra Pradesh",
    "State": "Andhra Pradesh",
    "RiverBasin": "East Coast",
    "HaLF": 10.74,
    "DamLength": 571,
    "GrossStorageCapacity": 516000,
    "ReservoirArea": 176840,
    "EffectiveStorageCapacity": 452000,
    "ReadMore": require("../assets/DamPDF/Dam.pdf-74.pdf")
  },
  {
    "SrNo.": 80,
    "Name": "Pedda Rayala Cheruvu Dam",
    "Latitude": 13.3367,
    "Longitude": 78.7242,
    "Address": "Cheruvu River, Punganuru, Andhra Pradesh",
    "State": "Andhra Pradesh",
    "RiverBasin": "East Coast",
    "HaLF": 12,
    "DamLength": 800,
    "GrossStorageCapacity": 1136910,
    "ReservoirArea": 621500,
    "EffectiveStorageCapacity": 1136900,
    "ReadMore": require("../assets/DamPDF/Dam.pdf-75.pdf")
  },
  {
    "SrNo.": 81,
    "Name": "Peddayetivanka, Annupal Dam",
    "Latitude": 13.4814,
    "Longitude": 79.2783,
    "Address": "Peddayetivanka River, Puttur, Andhra Pradesh",
    "State": "Andhra Pradesh",
    "RiverBasin": "East Coast",
    "HaLF": 12.11,
    "DamLength": 235,
    "GrossStorageCapacity": 370000,
    "ReservoirArea": 45032,
    "EffectiveStorageCapacity": 311000,
    "ReadMore": require("../assets/DamPDF/Dam.pdf-76.pdf")
  },
  {
    "SrNo.": 82,
    "Name": "Perval Project Dam",
    "Latitude": 16.6358,
    "Longitude": 79.0142,
    "Address": "Ghataprabha River, Devarkonda, Andhra Pradesh",
    "State": "Andhra Pradesh",
    "RiverBasin": "Krishna",
    "HaLF": 15,
    "DamLength": null,
    "GrossStorageCapacity": 4278000,
    "ReservoirArea": 1335157,
    "EffectiveStorageCapacity": 3174000,
    "ReadMore": require("../assets/DamPDF/Dam.pdf-77.pdf")
  },
  {
    "SrNo.": 83,
    "Name": "Rallakalva, Kaliyambaka Dam",
    "Latitude": 13.3217,
    "Longitude": 79.7364,
    "Address": "Rallakalva River, Chittoor, Andhra Pradesh",
    "State": "Andhra Pradesh",
    "RiverBasin": "East Coast",
    "HaLF": 10,
    "DamLength": 1515,
    "GrossStorageCapacity": 664900,
    "ReservoirArea": 157872,
    "EffectiveStorageCapacity": 561400,
    "ReadMore": require("../assets/DamPDF/Dam.pdf-78.pdf")
  },
  {
    "SrNo.": 84,
    "Name": "Rao Cheruvu, Rajupalem Dam",
    "Latitude": 15.1597,
    "Longitude": 78.9419,
    "Address": "Sagileru River, Badvel, Andhra Pradesh",
    "State": "Andhra Pradesh",
    "RiverBasin": "Pennar",
    "HaLF": 16,
    "DamLength": 460,
    "GrossStorageCapacity": 5650000,
    "ReservoirArea": 1820000,
    "EffectiveStorageCapacity": 5650000,
    "ReadMore": require("../assets/DamPDF/Dam.pdf-79.pdf")
  },
  {
    "SrNo.": 85,
    "Name": "Rayalacheruvu Dam",
    "Latitude": 13.5092,
    "Longitude": 79.3769,
    "Address": "Pennar River, Tadpatra, Andhra Pradesh",
    "State": "Andhra Pradesh",
    "RiverBasin": "East Coast",
    "HaLF": 10,
    "DamLength": 920,
    "GrossStorageCapacity": 2391350,
    "ReservoirArea": 2323000,
    "EffectiveStorageCapacity": 1840000,
    "ReadMore": require("../assets/DamPDF/Dam.pdf-80.pdf")
  },
  {
    "SrNo.": 86,
    "Name": "Seethacheru Dam",
    "Latitude": 13.3978,
    "Longitude": 78.82,
    "Address": "Godavari River, Addanki, Andhra Pradesh",
    "State": "Andhra Pradesh",
    "RiverBasin": "Pennar",
    "HaLF": 11,
    "DamLength": 1020,
    "GrossStorageCapacity": 2427000,
    "ReservoirArea": 775480,
    "EffectiveStorageCapacity": 2416000,
    "ReadMore": require("../assets/DamPDF/Dam.pdf-81.pdf")
  },
  {
    "SrNo.": 87,
    "Name": "Sreerangarayani Cheruvu Dam",
    "Latitude": 14.7858,
    "Longitude": 77.7081,
    "Address": "Ghatprabha River, Anantpur, Andhra Pradesh",
    "State": "Andhra Pradesh",
    "RiverBasin": "Pennar",
    "HaLF": 11.71,
    "DamLength": 2378.76,
    "GrossStorageCapacity": 39240490,
    "ReservoirArea": 10712300,
    "EffectiveStorageCapacity": 30185000,
    "ReadMore": require("../assets/DamPDF/Dam.pdf-82.pdf")
  },
  {
    "SrNo.": 88,
    "Name": "Tajangi Reservoir, Tajangi (V) Dam",
    "Latitude": 17.8703,
    "Longitude": 82.4958,
    "Address": "Ghataprabha River, Chintapalli, Andhra Pradesh",
    "State": "Andhra Pradesh",
    "RiverBasin": "Godavari",
    "HaLF": 17.3,
    "DamLength": 220,
    "GrossStorageCapacity": 1360000,
    "ReservoirArea": 138009,
    "EffectiveStorageCapacity": 1360000,
    "ReadMore": require("../assets/DamPDF/Dam.pdf-83.pdf")
  },
  {
    "SrNo.": 89,
    "Name": "Y.T.Cheruvu Dam",
    "Latitude": 15.1489,
    "Longitude": 77.5483,
    "Address": "Ghatprabha River, Gooty, Andhra Pradesh",
    "State": "Andhra Pradesh",
    "RiverBasin": "Pennar",
    "HaLF": 10,
    "DamLength": 2078,
    "GrossStorageCapacity": 12195880,
    "ReservoirArea": 5434650,
    "EffectiveStorageCapacity": 9381000,
    "ReadMore": require("../assets/DamPDF/Dam.pdf-84.pdf")
  },
  {
    "SrNo.": 90,
    "Name": "Sir Aurther Cotton Barrage (Godavari Barrage) Dam",
    "Latitude": 16.9381,
    "Longitude": 81.7742,
    "Address": "Godavari River, Rajahmundry, Andhra Pradesh",
    "State": "Andhra Pradesh",
    "RiverBasin": "Godavari",
    "HaLF": 12.64,
    "DamLength": 5837,
    "GrossStorageCapacity": 82997000,
    "ReservoirArea": 19030000,
    "EffectiveStorageCapacity": 60060,
    "ReadMore": require("../assets/DamPDF/Dam.pdf-85.pdf")
  },
  {
    "SrNo.": 91,
    "Name": "Bahuda Reservoir Dam",
    "Latitude": 13.5628,
    "Longitude": 78.6281,
    "Address": "Bahuda River, Madanapalle, Andhra Pradesh",
    "State": "Andhra Pradesh",
    "RiverBasin": "Pennar",
    "HaLF": 31.77,
    "DamLength": 792.48,
    "GrossStorageCapacity": 14060000,
    "ReservoirArea": 1469693,
    "EffectiveStorageCapacity": 11270000,
    "ReadMore": require("../assets/DamPDF/Dam.pdf-86.pdf")
  },
  {
    "SrNo.": 92,
    "Name": "Chagallu Barrage Dam",
    "Latitude": 14.9194,
    "Longitude": 77.8292,
    "Address": "Pennar River, Tadpatra, Andhra Pradesh",
    "State": "Andhra Pradesh",
    "RiverBasin": "Pennar",
    "HaLF": 21.43,
    "DamLength": 291.5,
    "GrossStorageCapacity": 50940000,
    "ReservoirArea": 9777361,
    "EffectiveStorageCapacity": null,
    "ReadMore": require("../assets/DamPDF/Dam.pdf-87.pdf")
  },
  {
    "SrNo.": 93,
    "Name": "Cheyyeru Project (Annamayya) Dam",
    "Latitude": 14.2136,
    "Longitude": 79.02,
    "Address": "Cheyyeru River, Rajampet, Andhra Pradesh",
    "State": "Andhra Pradesh",
    "RiverBasin": "Pennar",
    "HaLF": 25,
    "DamLength": 409,
    "GrossStorageCapacity": 63160000,
    "ReservoirArea": 7600000,
    "EffectiveStorageCapacity": 44890000,
    "ReadMore": require("../assets/DamPDF/Dam.pdf-88.pdf")
  },
  {
    "SrNo.": 94,
    "Name": "Gorakallu Balancing Reservoir Dam",
    "Latitude": 15.5653,
    "Longitude": 78.4044,
    "Address": "Mallama Selavagu River, Nandyal, Andhra Pradesh",
    "State": "Andhra Pradesh",
    "RiverBasin": "Pennar",
    "HaLF": 48.5,
    "DamLength": 1731,
    "GrossStorageCapacity": 352052000,
    "ReservoirArea": 13445485,
    "EffectiveStorageCapacity": 291380000,
    "ReadMore": require("../assets/DamPDF/Dam.pdf-89.pdf")
  },
  {
    "SrNo.": 95,
    "Name": "Janjavati Reservoir Dam",
    "Latitude": 18.8628,
    "Longitude": 83.4344,
    "Address": "Svarnamukhi Gomula River, Parvathipuram, Andhra Pradesh",
    "State": "Andhra Pradesh",
    "RiverBasin": "North East Coast",
    "HaLF": 34,
    "DamLength": 4370,
    "GrossStorageCapacity": 96300000,
    "ReservoirArea": 9710000,
    "EffectiveStorageCapacity": 78551000,
    "ReadMore": require("../assets/DamPDF/Dam.pdf-90.pdf")
  },
  {
    "SrNo.": 96,
    "Name": "Kandaleru Balancing Reservoir Dam",
    "Latitude": 14.3333,
    "Longitude": 79.6167,
    "Address": "Khandaleru River, Rapur, Andhra Pradesh",
    "State": "Andhra Pradesh",
    "RiverBasin": "East Coast",
    "HaLF": 49,
    "DamLength": 10752,
    "GrossStorageCapacity": 1926000000,
    "ReservoirArea": 142320000,
    "EffectiveStorageCapacity": 1688000000,
    "ReadMore": require("../assets/DamPDF/Dam.pdf-91.pdf")
  },
  {
    "SrNo.": 97,
    "Name": "Kothacheru, Kotagandlapally Dam",
    "Latitude": 14.1839,
    "Longitude": 77.7717,
    "Address": "Lower Krishna River, Pargi, Andhra Pradesh",
    "State": "Andhra Pradesh",
    "RiverBasin": "Pennar",
    "HaLF": 10.01,
    "DamLength": 873,
    "GrossStorageCapacity": 2002200,
    "ReservoirArea": 82600,
    "EffectiveStorageCapacity": 1401540,
    "ReadMore": require("../assets/DamPDF/Dam.pdf-92.pdf")
  },
  {
    "SrNo.": 98,
    "Name": "Mallemadugu Dam",
    "Latitude": 13.6772,
    "Longitude": 79.5242,
    "Address": "Konakalva River, Chandragiri, Andhra Pradesh",
    "State": "Andhra Pradesh",
    "RiverBasin": "East Coast",
    "HaLF": 15,
    "DamLength": 1334,
    "GrossStorageCapacity": 7499000,
    "ReservoirArea": 1696564,
    "EffectiveStorageCapacity": null,
    "ReadMore": require("../assets/DamPDF/Dam.pdf-93.pdf")
  },
  {
    "SrNo.": 99,
    "Name": "Musurmilli Reservoir Dam",
    "Latitude": 17.3819,
    "Longitude": 81.77,
    "Address": "Seethapalli Vagu River, Rampa Chodaram, Andhra Pradesh",
    "State": "Andhra Pradesh",
    "RiverBasin": "Godavari",
    "HaLF": 13.8,
    "DamLength": 624,
    "GrossStorageCapacity": 13753000,
    "ReservoirArea": 22000,
    "EffectiveStorageCapacity": 13218000,
    "ReadMore": require("../assets/DamPDF/Dam.pdf-94.pdf")
  },
  {
    "SrNo.": 100,
    "Name": "Musurmilli Reservoir Dam",
    "Latitude": 17.3819,
    "Longitude": 81.77,
    "Address": "Seethapalli Vagu River, Rampa Chodaram, Andhra Pradesh",
    "State": "Andhra Pradesh",
    "RiverBasin": "Godavari",
    "HaLF": 33,
    "DamLength": 1040,
    "GrossStorageCapacity": 45310000,
    "ReservoirArea": 2568469,
    "EffectiveStorageCapacity": null,
    "ReadMore": require("../assets/DamPDF/Dam.pdf-95.pdf")
  },
  {
    "SrNo.": 101,
    "Name": "N.T.R. Reservoir, Thatiparthi(V), Madugula(M) Dam",
    "Latitude": 17.9369,
    "Longitude": 82.7675,
    "Address": "Tacheru River, Chodavaram, Andhra Pradesh",
    "State": "Andhra Pradesh",
    "RiverBasin": "North East Coast",
    "HaLF": 24.51,
    "DamLength": 1317,
    "GrossStorageCapacity": 5770000,
    "ReservoirArea": 95473,
    "EffectiveStorageCapacity": 5029000,
    "ReadMore": require("../assets/DamPDF/Dam.pdf-96.pdf")
  },
  {
    "SrNo.": 102,
    "Name": "Peddagedda Reservoir Dam",
    "Latitude": 18.4692,
    "Longitude": 83.1142,
    "Address": "Peddagedda River, Salur, Andhra Pradesh",
    "State": "Andhra Pradesh",
    "RiverBasin": "North East Coast",
    "HaLF": 24,
    "DamLength": 2430,
    "GrossStorageCapacity": 30380000,
    "ReservoirArea": 2694389,
    "EffectiveStorageCapacity": 28911000,
    "ReadMore": require("../assets/DamPDF/Dam.pdf-97.pdf")
  },
  {
    "SrNo.": 103,
    "Name": "Penna Ahobilam (Dr. K.S.P.A.B.R.) Dam",
    "Latitude": 14.7906,
    "Longitude": 77.2992,
    "Address": "Pennar River, Rayadurg, Andhra Pradesh",
    "State": "Andhra Pradesh",
    "RiverBasin": "Pennar",
    "HaLF": 46,
    "DamLength": 2060,
    "GrossStorageCapacity": 314000000,
    "ReservoirArea": 27560000,
    "EffectiveStorageCapacity": 305000000,
    "ReadMore": require("../assets/DamPDF/Dam.pdf-98.pdf")
  },
  {
    "SrNo.": 105,
    "Name": "Sri Ramathirtham Dam",
    "Latitude": 15.6311,
    "Longitude": 79.7983,
    "Address": "Ongole Branch Canal Of N S P River, Ongole, Andhra Pradesh",
    "State": "Andhra Pradesh",
    "RiverBasin": "Pennar",
    "HaLF": 12.5,
    "DamLength": null,
    "GrossStorageCapacity": null,
    "ReservoirArea": 3901785,
    "EffectiveStorageCapacity": null,
    "ReadMore": require("../assets/DamPDF/Dam.pdf-99.pdf")
  },
  {
    "SrNo.": 106,
    "Name": "Thotapally Barrage Dam",
    "Latitude": 18.7847,
    "Longitude": 83.4947,
    "Address": "Nagavali River, Thotapalli, Andhra Pradesh",
    "State": "Andhra Pradesh",
    "RiverBasin": "North East Coast",
    "HaLF": 23,
    "DamLength": null,
    "GrossStorageCapacity": 71050000,
    "ReservoirArea": 11951005,
    "EffectiveStorageCapacity": null,
    "ReadMore": require("../assets/DamPDF/Dam.pdf-100.pdf")
  },
  {
    "SrNo.": 107,
    "Name": "Urakagedda Reservoir, Sankaram (V), Madugula(M) Dam",
    "Latitude": 17.9394,
    "Longitude": 82.7258,
    "Address": "Ghataprabha River, Paderu, Andhra Pradesh",
    "State": "Andhra Pradesh",
    "RiverBasin": "North East Coast",
    "HaLF": 25,
    "DamLength": 515,
    "GrossStorageCapacity": 2160000,
    "ReservoirArea": 172871,
    "EffectiveStorageCapacity": 2160000,
    "ReadMore": require("../assets/DamPDF/Dam.pdf-101.pdf")
  },
  {
    "SrNo.": 108,
    "Name": "Vadiyalacheru Dam",
    "Latitude": 13.3155,
    "Longitude": 78.9081,
    "Address": "Local Stream River, Chittoor, Andhra Pradesh",
    "State": "Andhra Pradesh",
    "RiverBasin": "East Coast",
    "HaLF": 11.21,
    "DamLength": 1450,
    "GrossStorageCapacity": 992000,
    "ReservoirArea": 346000,
    "EffectiveStorageCapacity": 889000,
    "ReadMore": require("../assets/DamPDF/Dam.pdf-102.pdf")
  },
  {
    "SrNo.": 109,
    "Name": "Vanaka Badigedda Dam",
    "Latitude": 18.8986,
    "Longitude": 83.4189,
    "Address": "Vanaka Badigedda River, Komarada, Andhra Pradesh",
    "State": "Andhra Pradesh",
    "RiverBasin": "North East Coast",
    "HaLF": 13,
    "DamLength": 630,
    "GrossStorageCapacity": 56317000,
    "ReservoirArea": 1130,
    "EffectiveStorageCapacity": null,
    "ReadMore": require("../assets/DamPDF/Dam.pdf-103.pdf")
  },
  {
    "SrNo.": 110,
    "Name": "Varadharajuswami Gudi Dam",
    "Latitude": 15.9671,
    "Longitude": 78.6467,
    "Address": "Munimadugulavagu River, Kurnool, Andhra Pradesh",
    "State": "Andhra Pradesh",
    "RiverBasin": "Krishna",
    "HaLF": 22,
    "DamLength": 588,
    "GrossStorageCapacity": 11020000,
    "ReservoirArea": 1324000,
    "EffectiveStorageCapacity": 10210000,
    "ReadMore": require("../assets/DamPDF/Dam.pdf-104.pdf")
  },
  {
    "SrNo.": 111,
    "Name": "Yeleru Reservoir Dam",
    "Latitude": 17.3,
    "Longitude": 82.0917,
    "Address": "Yeleru River, Kakinada, Andhra Pradesh",
    "State": "Andhra Pradesh",
    "RiverBasin": "Godavari",
    "HaLF": 43,
    "DamLength": 2544,
    "GrossStorageCapacity": 682700000,
    "ReservoirArea": 59360000,
    "EffectiveStorageCapacity": 508300000,
    "ReadMore": require("../assets/DamPDF/Dam.pdf-105.pdf")
  },
  {
    "SrNo.": 112,
    "Name": "Velugodu Balancing Reservoir Dam",
    "Latitude": 15.7248,
    "Longitude": 78.5993,
    "Address": "Pennar River, Atmakur, Andhra Pradesh",
    "State": "Andhra Pradesh",
    "RiverBasin": "Pennar",
    "HaLF": 28,
    "DamLength": 11640,
    "GrossStorageCapacity": 16950000,
    "ReservoirArea": 46300000,
    "EffectiveStorageCapacity": 16905000,
    "ReadMore": require("../assets/DamPDF/Dam.pdf-106.pdf")
  },
  {
    "SrNo.": 113,
    "Name": "N.T.R. T.G.P-Spvb Reservoir Dam",
    "Latitude": 14.8,
    "Longitude": 78.8833,
    "Address": "Vakkileru N River, Cuddapah, Andhra Pradesh",
    "State": "Andhra Pradesh",
    "RiverBasin": "Pennar",
    "HaLF": 50.5,
    "DamLength": 6109,
    "GrossStorageCapacity": 17735000,
    "ReservoirArea": 27340000,
    "EffectiveStorageCapacity": null,
    "ReadMore": require("../assets/DamPDF/Dam.pdf-107.pdf")
  },
  {
    "SrNo.": 114,
    "Name": "N.T.R. T.G.P-Subsidiary Reservoir No 2 Dam",
    "Latitude": 14.7903,
    "Longitude": 78.7986,
    "Address": "Vakkileru N River, Cuddapah, Andhra Pradesh",
    "State": "Andhra Pradesh",
    "RiverBasin": "Pennar",
    "HaLF": 18,
    "DamLength": null,
    "GrossStorageCapacity": 69269000,
    "ReservoirArea": 5535000,
    "EffectiveStorageCapacity": null,
    "ReadMore": require("../assets/DamPDF/Dam.pdf-108.pdf")
  },
  {
    "SrNo.": 115,
    "Name": "Tenneti Viswanadham Pedderu Reservoir Dam",
    "Latitude": 17.896,
    "Longitude": 82.6936,
    "Address": "Ghataprabha River, Visakhapatnam, Andhra Pradesh",
    "State": "Andhra Pradesh",
    "RiverBasin": "North East Coast",
    "HaLF": 36,
    "DamLength": 900,
    "GrossStorageCapacity": 13400000,
    "ReservoirArea": 1065865,
    "EffectiveStorageCapacity": 10140000,
    "ReadMore": require("../assets/DamPDF/Dam.pdf-109.pdf")
  },
  {
    "SrNo.": 116,
    "Name": "Alaganur Balancing Reservoir Dam",
    "Latitude": 15.7075,
    "Longitude": 78.3872,
    "Address": "Kanika Vagu River, Nandikotkur, Andhra Pradesh",
    "State": "Andhra Pradesh",
    "RiverBasin": "Pennar",
    "HaLF": 22,
    "DamLength": 7500,
    "GrossStorageCapacity": 13590,
    "ReservoirArea": 84000000000,
    "EffectiveStorageCapacity": null,
    "ReadMore": require("../assets/DamPDF/Dam.pdf-110.pdf")
  },
  {
    "SrNo.": 117,
    "Name": "Shri Kotla Vijaya Bhaskara Reddy Barragesunkesula Barrage Dam",
    "Latitude": 15.8803,
    "Longitude": 77.8578,
    "Address": "Tungabhadra River, Kurnool, Andhra Pradesh",
    "State": "Andhra Pradesh",
    "RiverBasin": "Krishna",
    "HaLF": 17.18,
    "DamLength": 630,
    "GrossStorageCapacity": 33975,
    "ReservoirArea": 5537630000,
    "EffectiveStorageCapacity": 27184,
    "ReadMore": require("../assets/DamPDF/Dam.pdf-111.pdf")
  },
  {
    "SrNo.": 118,
    "Name": "Ps Velegonda Project Sunkesula Dam",
    "Latitude": 15.8808,
    "Longitude": 77.8286,
    "Address": "Krishna River, Marakapur, Andhra Pradesh",
    "State": "Andhra Pradesh",
    "RiverBasin": "Krishna",
    "HaLF": 58.8,
    "DamLength": 400,
    "GrossStorageCapacity": 1525000,
    "ReservoirArea": 69525000000,
    "EffectiveStorageCapacity": 1231000,
    "ReadMore": require("../assets/DamPDF/Dam.pdf-112.pdf")
  },
  {
    "SrNo.": 119,
    "Name": "Ps Velegonda Project Gotimukkala Dam",
    "Latitude": 15.9594,
    "Longitude": 79.1369,
    "Address": "Krishna River, Marakapur, Andhra Pradesh",
    "State": "Andhra Pradesh",
    "RiverBasin": "Pennar",
    "HaLF": 70,
    "DamLength": 575,
    "GrossStorageCapacity": 1525000,
    "ReservoirArea": 69525000000,
    "EffectiveStorageCapacity": 1231000,
    "ReadMore": require("../assets/DamPDF/Dam.pdf-113.pdf")
  },
  {
    "SrNo.": 120,
    "Name": "Ps Velegonda Project Kakarla Dam",
    "Latitude": 15.6583,
    "Longitude": 79.1794,
    "Address": "Krishna River, Marakapur, Andhra Pradesh",
    "State": "Andhra Pradesh",
    "RiverBasin": "Pennar",
    "HaLF": 60,
    "DamLength": 470,
    "GrossStorageCapacity": 1525000,
    "ReservoirArea": 69525000000,
    "EffectiveStorageCapacity": 1231000,
    "ReadMore": require("../assets/DamPDF/Dam.pdf-114.pdf")
  },
  {
    "SrNo.": 121,
    "Name": "Chitravathi Balancing Reservoir Dam",
    "Latitude": 14.5597,
    "Longitude": 77.9597,
    "Address": "Chitravathi River, Ananthapur, Andhra Pradesh",
    "State": "Andhra Pradesh",
    "RiverBasin": "Pennar",
    "HaLF": 36.5,
    "DamLength": 846,
    "GrossStorageCapacity": 289636,
    "ReservoirArea": 35807000000,
    "EffectiveStorageCapacity": 288390,
    "ReadMore": require("../assets/DamPDF/Dam.pdf-115.pdf")
  },
  {
    "SrNo.": 122,
    "Name": "Subbaraya Balancing Reservoir Dam",
    "Latitude": 14.815,
    "Longitude": 77.8886,
    "Address": "Local Vagu River, Ananthapur, Andhra Pradesh",
    "State": "Andhra Pradesh",
    "RiverBasin": "Pennar",
    "HaLF": 27.4,
    "DamLength": 970,
    "GrossStorageCapacity": 11893,
    "ReservoirArea": 1433000000,
    "EffectiveStorageCapacity": 11893,
    "ReadMore": require("../assets/DamPDF/Dam.pdf-116.pdf")
  },
  {
    "SrNo.": 123,
    "Name": "Mutchukota Balancing Reservoir Dam",
    "Latitude": 14.8269,
    "Longitude": 77.8711,
    "Address": "Local Vagu River, Ananthapur, Andhra Pradesh",
    "State": "Andhra Pradesh",
    "RiverBasin": "Pennar",
    "HaLF": 25,
    "DamLength": 620,
    "GrossStorageCapacity": 18915,
    "ReservoirArea": 2194000000,
    "EffectiveStorageCapacity": 18915,
    "ReadMore": require("../assets/DamPDF/Dam.pdf-117.pdf")
  },
  {
    "SrNo.": 124,
    "Name": "Pendekallu Reservoir Dam",
    "Latitude": 14.973,
    "Longitude": 77.8683,
    "Address": "Local Vagu River, Anantapur, Andhra Pradesh",
    "State": "Andhra Pradesh",
    "RiverBasin": "Pennar",
    "HaLF": 15,
    "DamLength": 4774.3,
    "GrossStorageCapacity": 18406,
    "ReservoirArea": 6010000000,
    "EffectiveStorageCapacity": 18406,
    "ReadMore": require("../assets/DamPDF/Dam.pdf-118.pdf")
  },
  {
    "SrNo.": 125,
    "Name": "Gotta Barrage Dam",
    "Latitude": 18.6892,
    "Longitude": 83.9622,
    "Address": "Vamsadhara River, Hiramandalam, Andhra Pradesh",
    "State": "Andhra Pradesh",
    "RiverBasin": "North East Coast",
    "HaLF": 20.42,
    "DamLength": 475.79,
    "GrossStorageCapacity": 17329,
    "ReservoirArea": 2770000000,
    "EffectiveStorageCapacity": null,
    "ReadMore": require("../assets/DamPDF/Dam.pdf-119.pdf")
  },
  {
    "SrNo.": 126,
    "Name": "Bhupathi Palam Reservoir Dam",
    "Latitude": 17.4475,
    "Longitude": 81.7656,
    "Address": "Seethapalli Vagu River, Rampachodavaram, Andhra Pradesh",
    "State": "Andhra Pradesh",
    "RiverBasin": "Godavari",
    "HaLF": 34.5,
    "DamLength": 748,
    "GrossStorageCapacity": 18264366,
    "ReservoirArea": 3588000000,
    "EffectiveStorageCapacity": 11468322,
    "ReadMore": require("../assets/DamPDF/Dam.pdf-120.pdf")
  },
  {
    "SrNo.": 127,
    "Name": "Surempalem Reservoir Project Dam",
    "Latitude": 17.5061,
    "Longitude": 81.9047,
    "Address": "Burada Kalva River, Gokavaram, Andhra Pradesh",
    "State": "Andhra Pradesh",
    "RiverBasin": "Godavari",
    "HaLF": 27.6,
    "DamLength": 800,
    "GrossStorageCapacity": 7050894,
    "ReservoirArea": 2249000000,
    "EffectiveStorageCapacity": 7050894,
    "ReadMore": require("../assets/DamPDF/Dam.pdf-121.pdf")
  },
  {
    "SrNo.": 128,
    "Name": "Gogarbham Dam",
    "Latitude": 13.6908,
    "Longitude": 79.3536,
    "Address": "Local River, Tirupati, Andhra Pradesh",
    "State": "Andhra Pradesh",
    "RiverBasin": "East Coast",
    "HaLF": 24.3,
    "DamLength": 54,
    "GrossStorageCapacity": 1287.88,
    "ReservoirArea": 253710000,
    "EffectiveStorageCapacity": 1219.69,
    "ReadMore": require("../assets/DamPDF/Dam.pdf-122.pdf")
  },
  {
    "SrNo.": 129,
    "Name": "Akasaganga Dam",
    "Latitude": 13.7683,
    "Longitude": 79.3392,
    "Address": "Local River, Tirupati, Andhra Pradesh",
    "State": "Andhra Pradesh",
    "RiverBasin": "East Coast",
    "HaLF": 28,
    "DamLength": 170,
    "GrossStorageCapacity": 311.4,
    "ReservoirArea": 34550000,
    "EffectiveStorageCapacity": 304.58,
    "ReadMore": require("../assets/DamPDF/Dam.pdf-123.pdf")
  },
  {
    "SrNo.": 130,
    "Name": "Kumaradhara Pushpadhara Dam ",
    "Latitude": 13.7286,
    "Longitude": 79.325,
    "Address": "Odher River, Tirupati, Andhra Pradesh",
    "State": "Andhra Pradesh",
    "RiverBasin": "East Coast",
    "HaLF": 63.74,
    "DamLength": 906.3,
    "GrossStorageCapacity": 967,
    "ReservoirArea": 144630000,
    "EffectiveStorageCapacity": 967,
    "ReadMore": require("../assets/DamPDF/Dam.pdf-124.pdf")
  },
  {
    "SrNo.": 131,
    "Name": "Ranganadi Dam",
    "Latitude": 27.3428,
    "Longitude": 93.8172,
    "Address": "Ranganadi Panior River River, Itanagar, Arunachal Pradesh",
    "State": "Arunachal Pradesh",
    "RiverBasin": "Brahmaputra",
    "HaLF": 68,
    "DamLength": 344.75,
    "GrossStorageCapacity": 6170000,
    "ReservoirArea": 1600000,
    "EffectiveStorageCapacity": 4220000,
    "ReadMore": require("../assets/DamPDF/Dam.pdf-125.pdf")
  },
  {
    "SrNo.": 132,
    "Name": "Tenga Dam",
    "Latitude": 27.2236,
    "Longitude": 92.6578,
    "Address": "Tenga River, Tejpur., Arunachal Pradesh",
    "State": "Arunachal Pradesh",
    "RiverBasin": "Brahmaputra",
    "HaLF": 24.5,
    "DamLength": 103,
    "GrossStorageCapacity": 500000,
    "ReservoirArea": 40500,
    "EffectiveStorageCapacity": 340000,
    "ReadMore": require("../assets/DamPDF/Dam.pdf-126.pdf")
  },
  {
    "SrNo.": 133,
    "Name": "Pare Dam",
    "Latitude": 27.2397,
    "Longitude": 93.8114,
    "Address": "Pare River, Lakhimpur., Arunachal Pradesh",
    "State": "Arunachal Pradesh",
    "RiverBasin": "Brahmaputra",
    "HaLF": 63,
    "DamLength": 134.275,
    "GrossStorageCapacity": 19425000,
    "ReservoirArea": 1116000000,
    "EffectiveStorageCapacity": 5200000,
    "ReadMore": require("../assets/DamPDF/Dam.pdf-127.pdf")
  },
  {
    "SrNo.": 134,
    "Name": "Khandong Dam (Khangdong Power Station) Dam",
    "Latitude": 25.5283,
    "Longitude": 92.6328,
    "Address": "Kopili River, Shillong, Assam",
    "State": "Assam",
    "RiverBasin": "Brahmaputra",
    "HaLF": 66,
    "DamLength": 243,
    "GrossStorageCapacity": 166800000,
    "ReservoirArea": 13360000,
    "EffectiveStorageCapacity": 129500000,
    "ReadMore": require("../assets/DamPDF/Dam.pdf-128.pdf")
  },
  {
    "SrNo.": 135,
    "Name": "Umrong Dam (Kopili Power Station) Dam",
    "Latitude": 25.5283,
    "Longitude": 92.7125,
    "Address": "Umrong Nalla River, Shillong, Assam",
    "State": "Assam",
    "RiverBasin": "Brahmaputra",
    "HaLF": 30,
    "DamLength": 143.27,
    "GrossStorageCapacity": 78500000,
    "ReservoirArea": 1318000000,
    "EffectiveStorageCapacity": 55500000,
    "ReadMore": require("../assets/DamPDF/Dam.pdf-129.pdf")
  },
  {
    "SrNo.": 136,
    "Name": "Hatidubi Concrete Dam",
    "Latitude": 25.9128,
    "Longitude": 92.4992,
    "Address": "Borpani River, Guwahati, Assam",
    "State": "Assam",
    "RiverBasin": "Brahmaputra",
    "HaLF": 35,
    "DamLength": 197,
    "GrossStorageCapacity": null,
    "ReservoirArea": 170375,
    "EffectiveStorageCapacity": null,
    "ReadMore": require("../assets/DamPDF/Dam.pdf-130.pdf")
  },
  {
    "SrNo.": 137,
    "Name": "Subansiri Lower Dam",
    "Latitude": 27.5542,
    "Longitude": 94.2583,
    "Address": "Subansiri River, Dhemaji, Assam",
    "State": "Assam",
    "RiverBasin": "Brahmaputra",
    "HaLF": 130,
    "DamLength": 284,
    "GrossStorageCapacity": 1365000000,
    "ReservoirArea": 33500000,
    "EffectiveStorageCapacity": 440000000,
    "ReadMore": require("../assets/DamPDF/Dam.pdf-131.pdf")
  },
  {
    "SrNo.": 138,
    "Name": "Kharagpur Lake Dam",
    "Latitude": 25.1358,
    "Longitude": 86.525,
    "Address": "Mani River, Munger, Bihar",
    "State": "Bihar",
    "RiverBasin": "Ganga",
    "HaLF": 26.53,
    "DamLength": 221.04,
    "GrossStorageCapacity": 16510000,
    "ReservoirArea": 3840000,
    "EffectiveStorageCapacity": 16280000,
    "ReadMore": require("../assets/DamPDF/Dam.pdf-132.pdf")
  },
  {
    "SrNo.": 139,
    "Name": "Nagi Dam",
    "Latitude": 24.8208,
    "Longitude": 86.3997,
    "Address": "Nagi. River, Munger, Bihar",
    "State": "Bihar",
    "RiverBasin": "Ganga",
    "HaLF": 24.02,
    "DamLength": 1884,
    "GrossStorageCapacity": 10800000,
    "ReservoirArea": 4250000,
    "EffectiveStorageCapacity": 9300000,
    "ReadMore": require("../assets/DamPDF/Dam.pdf-133.pdf")
  },
  {
    "SrNo.": 140,
    "Name": "Kohira Dam",
    "Latitude": 24.9808,
    "Longitude": 83.4908,
    "Address": "Kohira. River, Bhabua, Bihar",
    "State": "Bihar",
    "RiverBasin": "Ganga",
    "HaLF": 24.06,
    "DamLength": 236.91,
    "GrossStorageCapacity": 28330000,
    "ReservoirArea": 5260000,
    "EffectiveStorageCapacity": 27440000,
    "ReadMore": require("../assets/DamPDF/Dam.pdf-134.pdf")
  },
  {
    "SrNo.": 141,
    "Name": "Amrity Dam",
    "Latitude": 24.8892,
    "Longitude": 86.1022,
    "Address": "Amrity. River, Jamui, Bihar",
    "State": "Bihar",
    "RiverBasin": "Ganga",
    "HaLF": 16.65,
    "DamLength": 166.15,
    "GrossStorageCapacity": 4920000,
    "ReservoirArea": 166000,
    "EffectiveStorageCapacity": 4348000,
    "ReadMore": require("../assets/DamPDF/Dam.pdf-135.pdf")
  },
  {
    "SrNo.": 142,
    "Name": "Badua Dam",
    "Latitude": 24.8878,
    "Longitude": 86.6458,
    "Address": "Badua. River, Bhagalpur, Bihar",
    "State": "Bihar",
    "RiverBasin": "Ganga",
    "HaLF": 56.66,
    "DamLength": 457.32,
    "GrossStorageCapacity": 128340000,
    "ReservoirArea": 11335000,
    "EffectiveStorageCapacity": 109830000,
    "ReadMore": require("../assets/DamPDF/Dam.pdf-136.pdf")
  },
  {
    "SrNo.": 143,
    "Name": "Srikhandi Dam",
    "Latitude": 24.8925,
    "Longitude": 86.09,
    "Address": "Srikhandi. River, Jamui, Bihar",
    "State": "Bihar",
    "RiverBasin": "Ganga",
    "HaLF": 16.65,
    "DamLength": 205.8,
    "GrossStorageCapacity": 4920000,
    "ReservoirArea": 166000,
    "EffectiveStorageCapacity": 4348000,
    "ReadMore": require("../assets/DamPDF/Dam.pdf-137.pdf")
  },
  {
    "SrNo.": 144,
    "Name": "Kolmahadeo Dam",
    "Latitude": 24.7111,
    "Longitude": 85.6617,
    "Address": "Kolmahadeo. River, Nawada, Bihar",
    "State": "Bihar",
    "RiverBasin": "Ganga",
    "HaLF": 25.2,
    "DamLength": 152,
    "GrossStorageCapacity": 5700000,
    "ReservoirArea": 570000,
    "EffectiveStorageCapacity": 4700000,
    "ReadMore": require("../assets/DamPDF/Dam.pdf-138.pdf")
  },
  {
    "SrNo.": 145,
    "Name": "Chandan Dam",
    "Latitude": 24.6756,
    "Longitude": 86.9225,
    "Address": "Chandan. River, Bounsi, Bihar",
    "State": "Bihar",
    "RiverBasin": "Ganga",
    "HaLF": 49.38,
    "DamLength": 1555,
    "GrossStorageCapacity": 157230000,
    "ReservoirArea": 10810000,
    "EffectiveStorageCapacity": 135740000,
    "ReadMore": require("../assets/DamPDF/Dam.pdf-139.pdf")
  },
  {
    "SrNo.": 146,
    "Name": "Jalkund Dam",
    "Latitude": 25.235,
    "Longitude": 86.5358,
    "Address": "Jalkund. River, Munger, Bihar",
    "State": "Bihar",
    "RiverBasin": "Ganga",
    "HaLF": 15.99,
    "DamLength": 631.1,
    "GrossStorageCapacity": 3085000,
    "ReservoirArea": 690300,
    "EffectiveStorageCapacity": 2776500,
    "ReadMore": require("../assets/DamPDF/Dam.pdf-140.pdf")
  },
  {
    "SrNo.": 147,
    "Name": "Morway Dam",
    "Latitude": 25.1325,
    "Longitude": 86.2192,
    "Address": "Morway. River, Munger, Bihar",
    "State": "Bihar",
    "RiverBasin": "Ganga",
    "HaLF": 33.42,
    "DamLength": 533.53,
    "GrossStorageCapacity": 14570000,
    "ReservoirArea": 16200000,
    "EffectiveStorageCapacity": 12370000,
    "ReadMore": require("../assets/DamPDF/Dam.pdf-141.pdf")
  },
  {
    "SrNo.": 148,
    "Name": "Satgharwa (N.F) Dam",
    "Latitude": 24.7281,
    "Longitude": 85.0131,
    "Address": "Satgharwa River, Munger, Bihar",
    "State": "Bihar",
    "RiverBasin": "Ganga",
    "HaLF": 19.21,
    "DamLength": 266.72,
    "GrossStorageCapacity": 1830000,
    "ReservoirArea": 360000,
    "EffectiveStorageCapacity": 1695000,
    "ReadMore": require("../assets/DamPDF/Dam.pdf-142.pdf")
  },
  {
    "SrNo.": 149,
    "Name": "Job Dam",
    "Latitude": 24.68,
    "Longitude": 85.5656,
    "Address": "Job. River, Nawada, Bihar",
    "State": "Bihar",
    "RiverBasin": "Ganga",
    "HaLF": 36.6,
    "DamLength": 1616,
    "GrossStorageCapacity": 12000000,
    "ReservoirArea": 2130000,
    "EffectiveStorageCapacity": 11000000,
    "ReadMore": require("../assets/DamPDF/Dam.pdf-143.pdf")
  },
  {
    "SrNo.": 150,
    "Name": "Kailash Ghati Dam",
    "Latitude": 24.8933,
    "Longitude": 85.9256,
    "Address": "Kailash Ghati. River, Jamui, Bihar",
    "State": "Bihar",
    "RiverBasin": "Ganga",
    "HaLF": 31.5,
    "DamLength": 183,
    "GrossStorageCapacity": 3571000,
    "ReservoirArea": 1020000,
    "EffectiveStorageCapacity": 3152000,
    "ReadMore": require("../assets/DamPDF/Dam.pdf-144.pdf")
  },
  {
    "SrNo.": 151,
    "Name": "Nakti Dam",
    "Latitude": 24.8531,
    "Longitude": 86.4433,
    "Address": "Nakti. River, Munger, Bihar",
    "State": "Bihar",
    "RiverBasin": "Ganga",
    "HaLF": 24.99,
    "DamLength": 990.85,
    "GrossStorageCapacity": 13970000,
    "ReservoirArea": 3640000,
    "EffectiveStorageCapacity": 12870000,
    "ReadMore": require("../assets/DamPDF/Dam.pdf-145.pdf")
  },
  {
    "SrNo.": 152,
    "Name": "Taracol (N.F) Dam",
    "Latitude": 24.8361,
    "Longitude": 85.9956,
    "Address": "Tarakol River, Jamui, Bihar",
    "State": "Bihar",
    "RiverBasin": "Ganga",
    "HaLF": 23.155,
    "DamLength": 106.67,
    "GrossStorageCapacity": 1049100,
    "ReservoirArea": 1092000,
    "EffectiveStorageCapacity": 979000,
    "ReadMore": require("../assets/DamPDF/Dam.pdf-146.pdf")
  },
  {
    "SrNo.": 153,
    "Name": "Baskund Dam",
    "Latitude": 25.0683,
    "Longitude": 86.2167,
    "Address": "Baskund. River, Jamui, Bihar",
    "State": "Bihar",
    "RiverBasin": "Ganga",
    "HaLF": 17.68,
    "DamLength": 67.07,
    "GrossStorageCapacity": 1230000,
    "ReservoirArea": 600000,
    "EffectiveStorageCapacity": 928000,
    "ReadMore": require("../assets/DamPDF/Dam.pdf-147.pdf")
  },
  {
    "SrNo.": 154,
    "Name": "Upper Badua (N.F) Dam",
    "Latitude": 24.8872,
    "Longitude": 86.6458,
    "Address": "Badua. River, Banka, Bihar",
    "State": "Bihar",
    "RiverBasin": "Ganga",
    "HaLF": 16.92,
    "DamLength": 1745,
    "GrossStorageCapacity": 4520000,
    "ReservoirArea": 1063000,
    "EffectiveStorageCapacity": 4260000,
    "ReadMore": require("../assets/DamPDF/Dam.pdf-148.pdf")
  },
  {
    "SrNo.": 155,
    "Name": "Belharna Dam",
    "Latitude": 24.8528,
    "Longitude": 86.5608,
    "Address": "Belharna. River, Bhagalpur, Bihar",
    "State": "Bihar",
    "RiverBasin": "Ganga",
    "HaLF": 30.1,
    "DamLength": 411.58,
    "GrossStorageCapacity": 15560000,
    "ReservoirArea": 2680000,
    "EffectiveStorageCapacity": 14570000,
    "ReadMore": require("../assets/DamPDF/Dam.pdf-149.pdf")
  },
  {
    "SrNo.": 156,
    "Name": "Phulwaria Dam",
    "Latitude": 24.5961,
    "Longitude": 85.4928,
    "Address": "Tilaiya. River, Nawada, Bihar",
    "State": "Bihar",
    "RiverBasin": "Ganga",
    "HaLF": 32.98,
    "DamLength": 1135,
    "GrossStorageCapacity": 59340000,
    "ReservoirArea": 9635600,
    "EffectiveStorageCapacity": 50740000,
    "ReadMore": require("../assets/DamPDF/Dam.pdf-150.pdf")
  },
  {
    "SrNo.": 157,
    "Name": "Anjan Dam",
    "Latitude": 25.0339,
    "Longitude": 86.2956,
    "Address": "Anjan. River, Jamui, Bihar",
    "State": "Bihar",
    "RiverBasin": "Ganga",
    "HaLF": 39.02,
    "DamLength": 518.3,
    "GrossStorageCapacity": 26680000,
    "ReservoirArea": 3440000,
    "EffectiveStorageCapacity": 24710000,
    "ReadMore": require("../assets/DamPDF/Dam.pdf-151.pdf")
  },
  {
    "SrNo.": 158,
    "Name": "Orhni Dam",
    "Latitude": 24.8236,
    "Longitude": 86.8122,
    "Address": "Orhni. River, Banka, Bihar",
    "State": "Bihar",
    "RiverBasin": "Ganga",
    "HaLF": 32,
    "DamLength": 686,
    "GrossStorageCapacity": 51560000,
    "ReservoirArea": 2024000,
    "EffectiveStorageCapacity": 44590000,
    "ReadMore": require("../assets/DamPDF/Dam.pdf-152.pdf")
  },
  {
    "SrNo.": 159,
    "Name": "Bilashi Dam",
    "Latitude": 24.9339,
    "Longitude": 86.8547,
    "Address": "Bilasi. River, Banka, Bihar",
    "State": "Bihar",
    "RiverBasin": "Ganga",
    "HaLF": 31.4,
    "DamLength": 168.29,
    "GrossStorageCapacity": 32570000,
    "ReservoirArea": 5830300,
    "EffectiveStorageCapacity": 28870000,
    "ReadMore": require("../assets/DamPDF/Dam.pdf-153.pdf")
  },
  {
    "SrNo.": 160,
    "Name": "Upper Kiul Dam",
    "Latitude": 24.8094,
    "Longitude": 86.0711,
    "Address": "Kiul. River, Jamui, Bihar",
    "State": "Bihar",
    "RiverBasin": "Ganga",
    "HaLF": 35.58,
    "DamLength": 3673,
    "GrossStorageCapacity": 98103000,
    "ReservoirArea": 12303000,
    "EffectiveStorageCapacity": 84529000,
    "ReadMore": require("../assets/DamPDF/Dam.pdf-154.pdf")
  },
  {
    "SrNo.": 161,
    "Name": "Barnar Dam",
    "Latitude": 24.6236,
    "Longitude": 86.3242,
    "Address": "Barnar. River, Jamui, Bihar",
    "State": "Bihar",
    "RiverBasin": "Ganga",
    "HaLF": 76.75,
    "DamLength": 282.7,
    "GrossStorageCapacity": 80210000,
    "ReservoirArea": 3750000,
    "EffectiveStorageCapacity": 70770000,
    "ReadMore": require("../assets/DamPDF/Dam.pdf-155.pdf")
  },
  {
    "SrNo.": 162,
    "Name": "Durgawati Dam",
    "Latitude": 24.8461,
    "Longitude": 83.7231,
    "Address": "Durgawati. River, Bhabua, Bihar",
    "State": "Bihar",
    "RiverBasin": "Ganga",
    "HaLF": 46.3,
    "DamLength": 1615.4,
    "GrossStorageCapacity": 287700000,
    "ReservoirArea": 23413000,
    "EffectiveStorageCapacity": 257500000,
    "ReadMore": require("../assets/DamPDF/Dam.pdf-156.pdf")
  },
  {
    "SrNo.": 163,
    "Name": "Sindhwarni Dam",
    "Latitude": 25.1308,
    "Longitude": 86.625,
    "Address": "Mani River, Munger, Bihar",
    "State": "Bihar",
    "RiverBasin": "Ganga",
    "HaLF": 22.56,
    "DamLength": 125.58,
    "GrossStorageCapacity": 50060000,
    "ReservoirArea": 7000000,
    "EffectiveStorageCapacity": 34260000,
    "ReadMore": require("../assets/DamPDF/Dam.pdf-157.pdf")
  },
  {
    "SrNo.": 164,
    "Name": "Kurud Dam",
    "Latitude": 21.2644,
    "Longitude": 81.7944,
    "Address": "Local River, Raipur, Chhattisgarh",
    "State": "Chhattisgarh",
    "RiverBasin": "Mahanadi",
    "HaLF": 10.21,
    "DamLength": 1981,
    "GrossStorageCapacity": 26280000,
    "ReservoirArea": 105000,
    "EffectiveStorageCapacity": 5710000,
    "ReadMore": require("../assets/DamPDF/Dam.pdf-158.pdf")
  },
  {
    "SrNo.": 165,
    "Name": "Darritola Dam",
    "Latitude": 20.6575,
    "Longitude": 81.3058,
    "Address": "Local Nalla River, Balod, Chhattisgarh",
    "State": "Chhattisgarh",
    "RiverBasin": "Mahanadi",
    "HaLF": 15,
    "DamLength": 1219,
    "GrossStorageCapacity": 2540000,
    "ReservoirArea": 9430000,
    "EffectiveStorageCapacity": 2215000,
    "ReadMore": require("../assets/DamPDF/Dam.pdf-159.pdf")
  },
  {
    "SrNo.": 166,
    "Name": "Dhanras Dam",
    "Latitude": 22.2911,
    "Longitude": 81.9167,
    "Address": "Local Nalla River, Kota, Chhattisgarh",
    "State": "Chhattisgarh",
    "RiverBasin": "Mahanadi",
    "HaLF": 11,
    "DamLength": 450,
    "GrossStorageCapacity": 1666000,
    "ReservoirArea": 405000,
    "EffectiveStorageCapacity": 1600000,
    "ReadMore": require("../assets/DamPDF/Dam.pdf-160.pdf")
  },
  {
    "SrNo.": 167,
    "Name": "Murrum Silli Dam",
    "Latitude": 20.5133,
    "Longitude": 81.6817,
    "Address": "Silliari River, Dhamtari, Chhattisgarh",
    "State": "Chhattisgarh",
    "RiverBasin": "Mahanadi",
    "HaLF": 25.53,
    "DamLength": 2591,
    "GrossStorageCapacity": 165340000,
    "ReservoirArea": 25250000,
    "EffectiveStorageCapacity": 162000000,
    "ReadMore": require("../assets/DamPDF/Dam.pdf-161.pdf")
  },
  {
    "SrNo.": 168,
    "Name": "Kumhari Dam",
    "Latitude": 21.4942,
    "Longitude": 81.9086,
    "Address": "Banjari Nalla River, Raipur, Chhattisgarh",
    "State": "Chhattisgarh",
    "RiverBasin": "Mahanadi",
    "HaLF": 11.87,
    "DamLength": 2076,
    "GrossStorageCapacity": 11610000,
    "ReservoirArea": 3992000,
    "EffectiveStorageCapacity": 11350000,
    "ReadMore": require("../assets/DamPDF/Dam.pdf-162.pdf")
  },
  {
    "SrNo.": 169,
    "Name": "Maniyari Dam",
    "Latitude": 22.3928,
    "Longitude": 81.5947,
    "Address": "Maniyari River, Mungeli, Chhattisgarh",
    "State": "Chhattisgarh",
    "RiverBasin": "Mahanadi",
    "HaLF": 28.96,
    "DamLength": 2095,
    "GrossStorageCapacity": 151290000,
    "ReservoirArea": 25270000,
    "EffectiveStorageCapacity": 147720000,
    "ReadMore": require("../assets/DamPDF/Dam.pdf-163.pdf")
  },
  {
    "SrNo.": 170,
    "Name": "Kharang Dam",
    "Latitude": 22.2892,
    "Longitude": 82.22,
    "Address": "Kharang River, Ratanpur, Chhattisgarh",
    "State": "Chhattisgarh",
    "RiverBasin": "Mahanadi",
    "HaLF": 21.3,
    "DamLength": 2214,
    "GrossStorageCapacity": 195310000,
    "ReservoirArea": 38074000,
    "EffectiveStorageCapacity": 192320000,
    "ReadMore": require("../assets/DamPDF/Dam.pdf-164.pdf")
  },
  {
    "SrNo.": 171,
    "Name": "Dhara Dam",
    "Latitude": 21.28,
    "Longitude": 80.8281,
    "Address": "Local Nalla River, Dongaragarh, Chhattisgarh",
    "State": "Chhattisgarh",
    "RiverBasin": "Mahanadi",
    "HaLF": 15.26,
    "DamLength": 807,
    "GrossStorageCapacity": 5136000,
    "ReservoirArea": 1145000,
    "EffectiveStorageCapacity": 5080000,
    "ReadMore": require("../assets/DamPDF/Dam.pdf-165.pdf")
  },
  {
    "SrNo.": 172,
    "Name": "Nawangaon Dam",
    "Latitude": 21.3803,
    "Longitude": 81.9447,
    "Address": "Local Nalla River, Raipur, Chhattisgarh",
    "State": "Chhattisgarh",
    "RiverBasin": "Mahanadi",
    "HaLF": 10.06,
    "DamLength": 1415,
    "GrossStorageCapacity": 3937000,
    "ReservoirArea": 27800,
    "EffectiveStorageCapacity": 1130000,
    "ReadMore": require("../assets/DamPDF/Dam.pdf-166.pdf")
  },
  {
    "SrNo.": 173,
    "Name": "Dudhawa Dam",
    "Latitude": 20.3092,
    "Longitude": 81.7628,
    "Address": "Mahanadi River River, Kanker, Chhattisgarh",
    "State": "Chhattisgarh",
    "RiverBasin": "Mahanadi",
    "HaLF": 30.53,
    "DamLength": 2907,
    "GrossStorageCapacity": 288680000,
    "ReservoirArea": 44868000,
    "EffectiveStorageCapacity": 284120000,
    "ReadMore": require("../assets/DamPDF/Dam.pdf-167.pdf")
  },
  {
    "SrNo.": 174,
    "Name": "Surhi Dam",
    "Latitude": 21.6803,
    "Longitude": 80.9333,
    "Address": "Local River, Rajnandgaon, Chhattisgarh",
    "State": "Chhattisgarh",
    "RiverBasin": "Mahanadi",
    "HaLF": 21.03,
    "DamLength": 2166,
    "GrossStorageCapacity": 22150000,
    "ReservoirArea": 4250000,
    "EffectiveStorageCapacity": 21620000,
    "ReadMore": require("../assets/DamPDF/Dam.pdf-168.pdf")
  },
  {
    "SrNo.": 175,
    "Name": "Ghughwa Dam",
    "Latitude": 21.5961,
    "Longitude": 81.7594,
    "Address": "Local Nalla River, Raipur, Chhattisgarh",
    "State": "Chhattisgarh",
    "RiverBasin": "Mahanadi",
    "HaLF": 13.4,
    "DamLength": 2317,
    "GrossStorageCapacity": 3077000,
    "ReservoirArea": 1373000,
    "EffectiveStorageCapacity": 2153900,
    "ReadMore": require("../assets/DamPDF/Dam.pdf-169.pdf")
  },
  {
    "SrNo.": 176,
    "Name": "Hasdeo Barrage Dam",
    "Latitude": 22.0661,
    "Longitude": 82.6311,
    "Address": "Hasdeo River, Korba, Chhattisgarh",
    "State": "Chhattisgarh",
    "RiverBasin": "Mahanadi",
    "HaLF": 17.15,
    "DamLength": 283.76,
    "GrossStorageCapacity": 80100000,
    "ReservoirArea": 25900000,
    "EffectiveStorageCapacity": 80100000,
    "ReadMore": require("../assets/DamPDF/Dam.pdf-170.pdf")
  },
  {
    "SrNo.": 177,
    "Name": "Kharkhara Dam",
    "Latitude": 20.8322,
    "Longitude": 80.9867,
    "Address": "Kharkhara River, Balod, Chhattisgarh",
    "State": "Chhattisgarh",
    "RiverBasin": "Mahanadi",
    "HaLF": 37.9,
    "DamLength": 1463,
    "GrossStorageCapacity": 171520000,
    "ReservoirArea": 24292000,
    "EffectiveStorageCapacity": 139200000,
    "ReadMore": require("../assets/DamPDF/Dam.pdf-171.pdf")
  },
  {
    "SrNo.": 178,
    "Name": "Chourasiya Dam",
    "Latitude": 22.0878,
    "Longitude": 82.1611,
    "Address": "Local Nalla River, Bilaspur, Chhattisgarh",
    "State": "Chhattisgarh",
    "RiverBasin": "Mahanadi",
    "HaLF": 12.47,
    "DamLength": 1097,
    "GrossStorageCapacity": 1756000,
    "ReservoirArea": 645000,
    "EffectiveStorageCapacity": 1618000,
    "ReadMore": require("../assets/DamPDF/Dam.pdf-172.pdf")
  },
  {
    "SrNo.": 179,
    "Name": "Dhawanpur Dam",
    "Latitude": 22.3525,
    "Longitude": 81.9628,
    "Address": "Baghaiha Nalla River, Mungeli, Chhattisgarh",
    "State": "Chhattisgarh",
    "RiverBasin": "Mahanadi",
    "HaLF": 10.1,
    "DamLength": 1204,
    "GrossStorageCapacity": 782000,
    "ReservoirArea": 358000,
    "EffectiveStorageCapacity": 702000,
    "ReadMore": require("../assets/DamPDF/Dam.pdf-173.pdf")
  },
  {
    "SrNo.": 180,
    "Name": "Paralkot Dam",
    "Latitude": 20.1558,
    "Longitude": 80.6419,
    "Address": "Denda River, Pamkhanjur, Chhattisgarh",
    "State": "Chhattisgarh",
    "RiverBasin": "Godavari",
    "HaLF": 25.21,
    "DamLength": 1234,
    "GrossStorageCapacity": 66360000,
    "ReservoirArea": 11370000,
    "EffectiveStorageCapacity": 63550000,
    "ReadMore": require("../assets/DamPDF/Dam.pdf-174.pdf")
  },
  {
    "SrNo.": 181,
    "Name": "Kharjir (Khajuri) Dam",
    "Latitude": 23.9325,
    "Longitude": 83.5075,
    "Address": "Local River, Pal, Chhattisgarh",
    "State": "Chhattisgarh",
    "RiverBasin": "Ganga",
    "HaLF": 12.29,
    "DamLength": 98,
    "GrossStorageCapacity": 15130000,
    "ReservoirArea": 783000,
    "EffectiveStorageCapacity": 14000000,
    "ReadMore": require("../assets/DamPDF/Dam.pdf-175.pdf")
  },
  {
    "SrNo.": 182,
    "Name": "P.V. Pakhanjore Dam",
    "Latitude": 19.7433,
    "Longitude": 81.1889,
    "Address": "Local River, Narayanpur, Chhattisgarh",
    "State": "Chhattisgarh",
    "RiverBasin": "Godavari",
    "HaLF": 17.59,
    "DamLength": 518,
    "GrossStorageCapacity": 2592000,
    "ReservoirArea": 1070000,
    "EffectiveStorageCapacity": 2469000,
    "ReadMore": require("../assets/DamPDF/Dam.pdf-176.pdf")
  },
  {
    "SrNo.": 183,
    "Name": "Jagannathpur T. Dam",
    "Latitude": 23.3706,
    "Longitude": 83.1953,
    "Address": "Local River, Partabpur, Chhattisgarh",
    "State": "Chhattisgarh",
    "RiverBasin": "Ganga",
    "HaLF": 16.05,
    "DamLength": 840,
    "GrossStorageCapacity": 4116000,
    "ReservoirArea": 690000,
    "EffectiveStorageCapacity": 3881000,
    "ReadMore": require("../assets/DamPDF/Dam.pdf-177.pdf")
  },
  {
    "SrNo.": 184,
    "Name": "Mayana Dam",
    "Latitude": 20.4178,
    "Longitude": 81.2811,
    "Address": "Naini Nalla River, Kanker, Chhattisgarh",
    "State": "Chhattisgarh",
    "RiverBasin": "Mahanadi",
    "HaLF": 15.32,
    "DamLength": 1311,
    "GrossStorageCapacity": 5982000,
    "ReservoirArea": 1563000,
    "EffectiveStorageCapacity": 5600000,
    "ReadMore": require("../assets/DamPDF/Dam.pdf-178.pdf")
  },
  {
    "SrNo.": 185,
    "Name": "Nirachindli Dam",
    "Latitude": 20.0483,
    "Longitude": 81.5942,
    "Address": "Patai River, Kondagaon, Chhattisgarh",
    "State": "Chhattisgarh",
    "RiverBasin": "Godavari",
    "HaLF": 10.05,
    "DamLength": 853,
    "GrossStorageCapacity": 700000,
    "ReservoirArea": 712000,
    "EffectiveStorageCapacity": 633000,
    "ReadMore": require("../assets/DamPDF/Dam.pdf-179.pdf")
  },
  {
    "SrNo.": 186,
    "Name": "Sikasar Dam",
    "Latitude": 20.5167,
    "Longitude": 82.3167,
    "Address": "Pairi River River, Raipur, Chhattisgarh",
    "State": "Chhattisgarh",
    "RiverBasin": "Mahanadi",
    "HaLF": 31.7,
    "DamLength": 1540,
    "GrossStorageCapacity": 216500000,
    "ReservoirArea": 252400000,
    "EffectiveStorageCapacity": 198800000,
    "ReadMore": require("../assets/DamPDF/Dam.pdf-180.pdf")
  },
  {
    "SrNo.": 187,
    "Name": "Dhab Dam",
    "Latitude": 24.0417,
    "Longitude": 83.3822,
    "Address": "Local Nalla River, Pal, Chhattisgarh",
    "State": "Chhattisgarh",
    "RiverBasin": "Ganga",
    "HaLF": 12.8,
    "DamLength": 504,
    "GrossStorageCapacity": 155000,
    "ReservoirArea": 154000,
    "EffectiveStorageCapacity": 121000,
    "ReadMore": require("../assets/DamPDF/Dam.pdf-181.pdf")
  },
  {
    "SrNo.": 188,
    "Name": "R.S. Sagar Dam",
    "Latitude": 20.6161,
    "Longitude": 81.5697,
    "Address": "Mahanadi River River, Dhamtari, Chhattisgarh",
    "State": "Chhattisgarh",
    "RiverBasin": "Mahanadi",
    "HaLF": 31.57,
    "DamLength": 1830,
    "GrossStorageCapacity": 910500000,
    "ReservoirArea": 95400000,
    "EffectiveStorageCapacity": 766890000,
    "ReadMore": require("../assets/DamPDF/Dam.pdf-182.pdf")
  },
  {
    "SrNo.": 189,
    "Name": "Sonpur -1 Dam",
    "Latitude": 20.3525,
    "Longitude": 81.5883,
    "Address": "Local Nalla River, Kanker, Chhattisgarh",
    "State": "Chhattisgarh",
    "RiverBasin": "Mahanadi",
    "HaLF": 10.41,
    "DamLength": 792,
    "GrossStorageCapacity": 841000,
    "ReservoirArea": 237000,
    "EffectiveStorageCapacity": 753000,
    "ReadMore": require("../assets/DamPDF/Dam.pdf-183.pdf")
  },
  {
    "SrNo.": 190,
    "Name": "Ballar Reservoir Dam",
    "Latitude": 21.53,
    "Longitude": 82.4917,
    "Address": "Balar Nalla River, Kasdol, Chhattisgarh",
    "State": "Chhattisgarh",
    "RiverBasin": "Mahanadi",
    "HaLF": 19.7,
    "DamLength": 945,
    "GrossStorageCapacity": 39670000,
    "ReservoirArea": 5460000,
    "EffectiveStorageCapacity": 36630000,
    "ReadMore": require("../assets/DamPDF/Dam.pdf-184.pdf")
  },
  {
    "SrNo.": 191,
    "Name": "Chaker Nalla Dam",
    "Latitude": 22.0625,
    "Longitude": 81.0167,
    "Address": "Local River, Kawardha, Chhattisgarh",
    "State": "Chhattisgarh",
    "RiverBasin": "Narmada",
    "HaLF": 12.65,
    "DamLength": 900,
    "GrossStorageCapacity": 403000,
    "ReservoirArea": 142000,
    "EffectiveStorageCapacity": 375000,
    "ReadMore": require("../assets/DamPDF/Dam.pdf-185.pdf")
  },
  {
    "SrNo.": 192,
    "Name": "Khunal(Khunsi) T Dam",
    "Latitude": 23.5531,
    "Longitude": 83.2125,
    "Address": "Local River, Partabpur, Chhattisgarh",
    "State": "Chhattisgarh",
    "RiverBasin": "Ganga",
    "HaLF": 10.97,
    "DamLength": 274,
    "GrossStorageCapacity": 4740000,
    "ReservoirArea": 347000,
    "EffectiveStorageCapacity": 4410000,
    "ReadMore": require("../assets/DamPDF/Dam.pdf-186.pdf")
  },
  {
    "SrNo.": 193,
    "Name": "Mankeshwari Dam",
    "Latitude": 20.2467,
    "Longitude": 81.465,
    "Address": "Local Nalla River, Kanker, Chhattisgarh",
    "State": "Chhattisgarh",
    "RiverBasin": "Mahanadi",
    "HaLF": 15.23,
    "DamLength": 676,
    "GrossStorageCapacity": 848000,
    "ReservoirArea": 275000,
    "EffectiveStorageCapacity": 786000,
    "ReadMore": require("../assets/DamPDF/Dam.pdf-187.pdf")
  },
  {
    "SrNo.": 194,
    "Name": "Amabeda Dam",
    "Latitude": 20.0872,
    "Longitude": 81.3286,
    "Address": "Local River, Narainpur, Chhattisgarh",
    "State": "Chhattisgarh",
    "RiverBasin": "Godavari",
    "HaLF": 10.67,
    "DamLength": 518,
    "GrossStorageCapacity": 1249000,
    "ReservoirArea": 383000,
    "EffectiveStorageCapacity": 1129000,
    "ReadMore": require("../assets/DamPDF/Dam.pdf-188.pdf")
  },
  {
    "SrNo.": 195,
    "Name": "Chhuwari Pali T. Dam",
    "Latitude": 21.6647,
    "Longitude": 83.2397,
    "Address": "Local Nalla River, Sarangarh, Chhattisgarh",
    "State": "Chhattisgarh",
    "RiverBasin": "Mahanadi",
    "HaLF": 12.8,
    "DamLength": 579,
    "GrossStorageCapacity": 921000000,
    "ReservoirArea": 127000,
    "EffectiveStorageCapacity": 1143000,
    "ReadMore": require("../assets/DamPDF/Dam.pdf-189.pdf")
  },
  {
    "SrNo.": 196,
    "Name": "Kodar Project Dam",
    "Latitude": 21.1972,
    "Longitude": 82.1803,
    "Address": "Kodar River, Mahasamund, Chhattisgarh",
    "State": "Chhattisgarh",
    "RiverBasin": "Mahanadi",
    "HaLF": 23.32,
    "DamLength": 2347,
    "GrossStorageCapacity": 160350000,
    "ReservoirArea": 13880000,
    "EffectiveStorageCapacity": 149000000,
    "ReadMore": require("../assets/DamPDF/Dam.pdf-190.pdf")
  },
  {
    "SrNo.": 197,
    "Name": "Bisrampuri Dam",
    "Latitude": 19.3878,
    "Longitude": 81.8372,
    "Address": "Local River, Jagdolpur, Chhattisgarh",
    "State": "Chhattisgarh",
    "RiverBasin": "Godavari",
    "HaLF": 12.4,
    "DamLength": 600,
    "GrossStorageCapacity": 141000,
    "ReservoirArea": 552000,
    "EffectiveStorageCapacity": 136000,
    "ReadMore": require("../assets/DamPDF/Dam.pdf-191.pdf")
  },
  {
    "SrNo.": 198,
    "Name": "Chilputi Dam",
    "Latitude": 19.6389,
    "Longitude": 81.7139,
    "Address": "Local River, Kondagaon, Chhattisgarh",
    "State": "Chhattisgarh",
    "RiverBasin": "Godavari",
    "HaLF": 11.71,
    "DamLength": 540,
    "GrossStorageCapacity": 860000,
    "ReservoirArea": 3307000,
    "EffectiveStorageCapacity": 800000,
    "ReadMore": require("../assets/DamPDF/Dam.pdf-192.pdf")
  },
  {
    "SrNo.": 199,
    "Name": "Kasanpal Dam",
    "Latitude": 18.6883,
    "Longitude": 81.7711,
    "Address": "Kasanpal River, Konta, Chhattisgarh",
    "State": "Chhattisgarh",
    "RiverBasin": "Godavari",
    "HaLF": 16.3,
    "DamLength": 570,
    "GrossStorageCapacity": 920000,
    "ReservoirArea": 260000,
    "EffectiveStorageCapacity": 780000,
    "ReadMore": require("../assets/DamPDF/Dam.pdf-193.pdf")
  },
  {
    "SrNo.": 200,
    "Name": "Kinkari Nala T. Dam",
    "Latitude": 21.4547,
    "Longitude": 83.2994,
    "Address": "Kinkari River, Sarangarh, Chhattisgarh",
    "State": "Chhattisgarh",
    "RiverBasin": "Mahanadi",
    "HaLF": 17.68,
    "DamLength": 295.65,
    "GrossStorageCapacity": 16220000,
    "ReservoirArea": 3578000,
    "EffectiveStorageCapacity": 15715000,
    "ReadMore": require("../assets/DamPDF/Dam.pdf-194.pdf")
  },
  {
    "SrNo.": 201,
    "Name": "Manikpur Dam",
    "Latitude": 20.3394,
    "Longitude": 81.6044,
    "Address": "Local Nalla River, Kanker, Chhattisgarh",
    "State": "Chhattisgarh",
    "RiverBasin": "Mahanadi",
    "HaLF": 13.41,
    "DamLength": 734.57,
    "GrossStorageCapacity": 824000,
    "ReservoirArea": 211000,
    "EffectiveStorageCapacity": 793000,
    "ReadMore": require("../assets/DamPDF/Dam.pdf-195.pdf")
  },
  {
    "SrNo.": 202,
    "Name": "Amakhokhra T. Dam",
    "Latitude": 22.5331,
    "Longitude": 82.5261,
    "Address": "Local Nalla River, Katghora, Chhattisgarh",
    "State": "Chhattisgarh",
    "RiverBasin": "Mahanadi",
    "HaLF": 10.8,
    "DamLength": 744,
    "GrossStorageCapacity": 340000,
    "ReservoirArea": 105000,
    "EffectiveStorageCapacity": 306000,
    "ReadMore": require("../assets/DamPDF/Dam.pdf-196.pdf")
  },
  {
    "SrNo.": 203,
    "Name": "Gouri Dam",
    "Latitude": 20.4417,
    "Longitude": 81.3589,
    "Address": "Local Nalla River, Kanker, Chhattisgarh",
    "State": "Chhattisgarh",
    "RiverBasin": "Mahanadi",
    "HaLF": 14.02,
    "DamLength": 856,
    "GrossStorageCapacity": 839000,
    "ReservoirArea": 314000,
    "EffectiveStorageCapacity": 793000,
    "ReadMore": require("../assets/DamPDF/Dam.pdf-197.pdf")
  },
  {
    "SrNo.": 204,
    "Name": "Paniyajob Dam",
    "Latitude": 21.2089,
    "Longitude": 80.6667,
    "Address": "Dhardhara River, Dongaragarh, Chhattisgarh",
    "State": "Chhattisgarh",
    "RiverBasin": "Mahanadi",
    "HaLF": 19.46,
    "DamLength": 1220,
    "GrossStorageCapacity": 6580000,
    "ReservoirArea": 137000,
    "EffectiveStorageCapacity": 6110000,
    "ReadMore": require("../assets/DamPDF/Dam.pdf-198.pdf")
  },
  {
    "SrNo.": 205,
    "Name": "Uperwah Dam",
    "Latitude": 21.2289,
    "Longitude": 81.1272,
    "Address": "Local Nalla River, Rajnandgaon, Chhattisgarh",
    "State": "Chhattisgarh",
    "RiverBasin": "Mahanadi",
    "HaLF": 10.66,
    "DamLength": 1737,
    "GrossStorageCapacity": 1468000,
    "ReservoirArea": 510000,
    "EffectiveStorageCapacity": 1349000,
    "ReadMore": require("../assets/DamPDF/Dam.pdf-199.pdf")
  },
  {
    "SrNo.": 206,
    "Name": "Badrika Ashram T. Dam",
    "Latitude": 23.1775,
    "Longitude": 82.7506,
    "Address": "Local Nalla River, Surajpur, Chhattisgarh",
    "State": "Chhattisgarh",
    "RiverBasin": "Mahanadi",
    "HaLF": 10.5,
    "DamLength": 690,
    "GrossStorageCapacity": 500000,
    "ReservoirArea": 467000,
    "EffectiveStorageCapacity": 460000,
    "ReadMore": require("../assets/DamPDF/Dam.pdf-200.pdf")
  },
  {
    "SrNo.": 207,
    "Name": "Bhagwantola Dam",
    "Latitude": 20.6939,
    "Longitude": 80.7228,
    "Address": "Local Nalla River, Rajnandgaon, Chhattisgarh",
    "State": "Chhattisgarh",
    "RiverBasin": "Mahanadi",
    "HaLF": 11.71,
    "DamLength": 411,
    "GrossStorageCapacity": 1293000,
    "ReservoirArea": 334000,
    "EffectiveStorageCapacity": 1214000,
    "ReadMore": require("../assets/DamPDF/Dam.pdf-201.pdf")
  },
  {
    "SrNo.": 208,
    "Name": "Chikhali Dam",
    "Latitude": 20.5483,
    "Longitude": 81.0808,
    "Address": "Local Nalla River, Balod, Chhattisgarh",
    "State": "Chhattisgarh",
    "RiverBasin": "Mahanadi",
    "HaLF": 10.56,
    "DamLength": 975,
    "GrossStorageCapacity": 1545000,
    "ReservoirArea": 517000,
    "EffectiveStorageCapacity": 1466000,
    "ReadMore": require("../assets/DamPDF/Dam.pdf-202.pdf")
  },
  {
    "SrNo.": 209,
    "Name": "Pipriya Nalla Dam",
    "Latitude": 21.5419,
    "Longitude": 80.9275,
    "Address": "Pipariya Nalla River, Rajnandgaon, Chhattisgarh",
    "State": "Chhattisgarh",
    "RiverBasin": "Mahanadi",
    "HaLF": 21,
    "DamLength": 1953,
    "GrossStorageCapacity": 45700000,
    "ReservoirArea": 7663000,
    "EffectiveStorageCapacity": 40560000,
    "ReadMore": require("../assets/DamPDF/Dam.pdf-203.pdf")
  },
  {
    "SrNo.": 210,
    "Name": "Risewada Dam",
    "Latitude": 20.3853,
    "Longitude": 81.5981,
    "Address": "Local Nalla River, Kanker, Chhattisgarh",
    "State": "Chhattisgarh",
    "RiverBasin": "Mahanadi",
    "HaLF": 11.64,
    "DamLength": 1219,
    "GrossStorageCapacity": 1808000,
    "ReservoirArea": 632000,
    "EffectiveStorageCapacity": 1647000,
    "ReadMore": require("../assets/DamPDF/Dam.pdf-204.pdf")
  },
  {
    "SrNo.": 211,
    "Name": "Karakachhar T. Dam",
    "Latitude": 22.6325,
    "Longitude": 83.4597,
    "Address": "Local Nalla River, Pathalgam, Chhattisgarh",
    "State": "Chhattisgarh",
    "RiverBasin": "Mahanadi",
    "HaLF": 11.3,
    "DamLength": 660,
    "GrossStorageCapacity": 1488000,
    "ReservoirArea": 49109000,
    "EffectiveStorageCapacity": 1261000,
    "ReadMore": require("../assets/DamPDF/Dam.pdf-205.pdf")
  },
  {
    "SrNo.": 212,
    "Name": "Khairkheda Dam",
    "Latitude": 20.4053,
    "Longitude": 81.3897,
    "Address": "Local Nalla River, Kanker, Chhattisgarh",
    "State": "Chhattisgarh",
    "RiverBasin": "Mahanadi",
    "HaLF": 10.3,
    "DamLength": 975,
    "GrossStorageCapacity": 2150000,
    "ReservoirArea": 494000,
    "EffectiveStorageCapacity": 2064000,
    "ReadMore": require("../assets/DamPDF/Dam.pdf-206.pdf")
  },
  {
    "SrNo.": 213,
    "Name": "Motiamoti Dam",
    "Latitude": 20.8842,
    "Longitude": 80.9375,
    "Address": "Moti Nalla River, Rajnandgaon, Chhattisgarh",
    "State": "Chhattisgarh",
    "RiverBasin": "Mahanadi",
    "HaLF": 18.53,
    "DamLength": 1367,
    "GrossStorageCapacity": 29449470,
    "ReservoirArea": 29430000,
    "EffectiveStorageCapacity": 26476210,
    "ReadMore": require("../assets/DamPDF/Dam.pdf-207.pdf")
  },
  {
    "SrNo.": 214,
    "Name": "Pathargawan Dam",
    "Latitude": 23.4217,
    "Longitude": 82.5944,
    "Address": "Local River, Baikunthpur, Chhattisgarh",
    "State": "Chhattisgarh",
    "RiverBasin": "Ganga",
    "HaLF": 15.31,
    "DamLength": 428,
    "GrossStorageCapacity": 1030000,
    "ReservoirArea": 230000,
    "EffectiveStorageCapacity": 960000,
    "ReadMore": require("../assets/DamPDF/Dam.pdf-208.pdf")
  },
  {
    "SrNo.": 215,
    "Name": "Sondur Dam",
    "Latitude": 20.2275,
    "Longitude": 82.1033,
    "Address": "Sondur River, Dhamtari, Chhattisgarh",
    "State": "Chhattisgarh",
    "RiverBasin": "Mahanadi",
    "HaLF": 26.7,
    "DamLength": 3130,
    "GrossStorageCapacity": 198100000,
    "ReservoirArea": 24160000,
    "EffectiveStorageCapacity": 179609000,
    "ReadMore": require("../assets/DamPDF/Dam.pdf-209.pdf")
  },
  {
    "SrNo.": 216,
    "Name": "Minimata Bango Dam",
    "Latitude": 22.605,
    "Longitude": 82.5981,
    "Address": "Hasdeo. River, Korba, Chhattisgarh",
    "State": "Chhattisgarh",
    "RiverBasin": "Mahanadi",
    "HaLF": 87,
    "DamLength": 554.5,
    "GrossStorageCapacity": 3416000000,
    "ReservoirArea": 18490000,
    "EffectiveStorageCapacity": 2894000000,
    "ReadMore": require("../assets/DamPDF/Dam.pdf-210.pdf")
  },
  {
    "SrNo.": 217,
    "Name": "Khamharpakut T. Dam",
    "Latitude": 22.425,
    "Longitude": 83.57,
    "Address": "Kharun River, Charghoda, Chhattisgarh",
    "State": "Chhattisgarh",
    "RiverBasin": "Mahanadi",
    "HaLF": 22.15,
    "DamLength": 960,
    "GrossStorageCapacity": 20098000,
    "ReservoirArea": 3558000,
    "EffectiveStorageCapacity": 19380000,
    "ReadMore": require("../assets/DamPDF/Dam.pdf-211.pdf")
  },
  {
    "SrNo.": 218,
    "Name": "Kokanitarai T. Dam",
    "Latitude": 21.9375,
    "Longitude": 83.3231,
    "Address": "Local Nalla River, Raigarh, Chhattisgarh",
    "State": "Chhattisgarh",
    "RiverBasin": "Mahanadi",
    "HaLF": 12.9,
    "DamLength": 1500,
    "GrossStorageCapacity": 2430000,
    "ReservoirArea": 1170000,
    "EffectiveStorageCapacity": 2050000,
    "ReadMore": require("../assets/DamPDF/Dam.pdf-212.pdf")
  },
  {
    "SrNo.": 219,
    "Name": "Tumdih Dam",
    "Latitude": 22.0756,
    "Longitude": 83.33,
    "Address": "Kosam River, Gharghoda, Chhattisgarh",
    "State": "Chhattisgarh",
    "RiverBasin": "Mahanadi",
    "HaLF": 19,
    "DamLength": 1200,
    "GrossStorageCapacity": 2420000,
    "ReservoirArea": 611000,
    "EffectiveStorageCapacity": 2160000,
    "ReadMore": require("../assets/DamPDF/Dam.pdf-213.pdf")
  },
  {
    "SrNo.": 220,
    "Name": "Chhirpani Dam",
    "Latitude": 22.2853,
    "Longitude": 81.1981,
    "Address": "Phonk River, Kawardha, Chhattisgarh",
    "State": "Chhattisgarh",
    "RiverBasin": "Mahanadi",
    "HaLF": 31.64,
    "DamLength": 450,
    "GrossStorageCapacity": 70910000,
    "ReservoirArea": 5088000,
    "EffectiveStorageCapacity": 50250000,
    "ReadMore": require("../assets/DamPDF/Dam.pdf-214.pdf")
  },
  {
    "SrNo.": 221,
    "Name": "Rengakhar Dam",
    "Latitude": 22.0533,
    "Longitude": 81.2161,
    "Address": "Local Nalla River, Kawarha, Chhattisgarh",
    "State": "Chhattisgarh",
    "RiverBasin": "Mahanadi",
    "HaLF": 14.85,
    "DamLength": 780,
    "GrossStorageCapacity": 525000,
    "ReservoirArea": 241000,
    "EffectiveStorageCapacity": 506000,
    "ReadMore": require("../assets/DamPDF/Dam.pdf-215.pdf")
  },
  {
    "SrNo.": 222,
    "Name": "Rochand Dam",
    "Latitude": 22.4261,
    "Longitude": 81.1856,
    "Address": "Local Nalla River, Kawarha, Chhattisgarh",
    "State": "Chhattisgarh",
    "RiverBasin": "Mahanadi",
    "HaLF": 16.6,
    "DamLength": 1330,
    "GrossStorageCapacity": 1179000,
    "ReservoirArea": 482220,
    "EffectiveStorageCapacity": 1136000,
    "ReadMore": require("../assets/DamPDF/Dam.pdf-216.pdf")
  },
  {
    "SrNo.": 223,
    "Name": "Usaritola Dam",
    "Latitude": 20.9997,
    "Longitude": 81.2972,
    "Address": "Local Nalla River, Dondi, Chhattisgarh",
    "State": "Chhattisgarh",
    "RiverBasin": "Mahanadi",
    "HaLF": 10.25,
    "DamLength": 870,
    "GrossStorageCapacity": 7806000,
    "ReservoirArea": 270000,
    "EffectiveStorageCapacity": 7450000,
    "ReadMore": require("../assets/DamPDF/Dam.pdf-217.pdf")
  },
  {
    "SrNo.": 224,
    "Name": "K.C.B.Barrage Dam",
    "Latitude": 20.6586,
    "Longitude": 81.5622,
    "Address": "Mahanadi River River, Dhamtari, Chhattisgarh",
    "State": "Chhattisgarh",
    "RiverBasin": "Mahanadi",
    "HaLF": 21.7,
    "DamLength": 464,
    "GrossStorageCapacity": 4496000,
    "ReservoirArea": 2747000,
    "EffectiveStorageCapacity": null,
    "ReadMore": require("../assets/DamPDF/Dam.pdf-218.pdf")
  },